name,address,dong,latitude,longitude,category
대풍청과,서울특별시 성북구 동소문로 225-9,길음2동,37.6022592329646,127.02154594357,청과물소매
대림농산,서울특별시 동대문구 약령동길 50,제기동,37.5804897897861,127.03795307583,청과물소매
대영식품,서울특별시 강남구 남부순환로365길 19,도곡1동,37.486799144278,127.039133233433,식료품점
신흥축산,서울특별시 관악구 장군봉1길 41,청룡동,37.4817278466712,126.942287718288,육류소매
풍미축산유통,서울특별시 강북구 한천로123길 31,번1동,37.6359218220692,127.030259443641,육류소매
다미가식품,서울특별시 금천구 가산디지털1로 33-22,가산동,37.4696852170844,126.884949412512,식료품점
대한물산명품정육점,서울특별시 동대문구 고산자로 534,제기동,37.5883840636717,127.039198906676,육류소매
맛있는찬찬찬,서울특별시 은평구 연서로17길 24,갈현2동,37.6132574280857,126.914999248346,식료품점
인덕기름집,서울특별시 노원구 월계로53길 1,월계2동,37.6303405636469,127.058711909543,식료품점
정원식품,서울특별시 강남구 테헤란로33길 3-12,역삼1동,37.501895596707,127.038487407817,식료품점
대서울정육점,서울특별시 동작구 서달로12사길 19,흑석동,37.504114133637,126.963087974615,육류소매
럭키프라자유통,서울특별시 양천구 가로공원로58길 13-1,신월3동,37.5334901096859,126.824757560879,식료품점
영림식품,서울특별시 중구 다산로19길 8,다산동,37.5574654765115,127.011458865669,식료품점
아워홈동대문종합시장,서울특별시 종로구 종로 266,종로5.6가동,37.5706940376659,127.007310641055,식료품점
한양식품,서울특별시 영등포구 버드나루로11길 14,영등포동,37.5245297250813,126.907868602936,식료품점
광서식품,서울특별시 은평구 통일로78길 34,불광2동,37.6193191779894,126.92559302192,식료품점
에바다,서울특별시 노원구 덕릉로 780,상계3.4동,37.6666871362361,127.079109215287,수산물소매
지하식품,서울특별시 서초구 신반포로 176,반포4동,37.5039300142165,127.00239321346,식료품점
계동마나님,서울특별시 종로구 계동길 99,가회동,37.5816911021,126.986615396535,식료품점
서울우유,서울특별시 동대문구 왕산로 214,전농1동,37.584191612425,127.051129904848,식료품점
제일식품,서울특별시 강북구 삼양로92길 15,수유3동,37.6368387724939,127.018022147205,식료품점
대화유통,서울특별시 중구 을지로32길 34,광희동,37.565280640479,127.0000588186,수산물소매
한우면우촌리,서울특별시 용산구 이촌로77길 19,이촌1동,37.520426902219,126.974876251724,육류소매
원조,서울특별시 관악구 대학18길 34-10,대학동,37.4646892487211,126.93629920884,수산물소매
강동대리점,서울특별시 강동구 고덕로27길 33-17,암사3동,37.5560197046244,127.137368936321,식료품점
그린코리아영어,서울특별시 서초구 서초대로 148,방배1동,37.48883941813,126.998376103898,청과물소매
정석푸드,서울특별시 영등포구 도림로64길 12-2,대림1동,37.4968660707337,126.904777136916,육류소매
바다원,서울특별시 동대문구 왕산로 214,전농1동,37.584191612425,127.051129904848,식료품점
매일우유,서울특별시 양천구 중앙로29길 40-3,신정3동,37.5163441189296,126.849539317446,식료품점
고화김치,서울특별시 중랑구 망우로66길 75,망우본동,37.596257538931,127.099557402757,식료품점
동무,서울특별시 도봉구 방학로15길 26,방학3동,37.6602070407391,127.023993363186,육류소매
대화식품,서울특별시 중구 마장로9길 17,황학동,37.5691823789118,127.019420482829,식료품점
풍년농산물,서울특별시 구로구 도림로 7,구로4동,37.4853132185745,126.886311491903,청과물소매
농산물중도매법인직거래정산조합,서울특별시 송파구 양재대로 932,가락1동,37.4945258840774,127.108696384278,청과물소매
대흥건어물,서울특별시 광진구 자양로13나길 16,자양1동,37.5340438557777,127.080176970271,수산물소매
대성축산,서울특별시 용산구 보광로 28,보광동,37.5269082772624,127.000435495918,육류소매
해랑건어물,서울특별시 강동구 양재대로91길 20,성내3동,37.5280512836812,127.13495315272,수산물소매
하루식품,서울특별시 중구 소공로 63,회현동,37.5609095133129,126.980965925363,식료품점
공원식품,서울특별시 영등포구 영중로34길 3,영등포동,37.5262495497185,126.905795799819,식료품점
뉴현대상회,서울특별시 중구 을지로32길 35-5,광희동,37.5650335519749,127.00067336785,식료품점
맛좋은과일,서울특별시 양천구 오목로 196,신정4동,37.5251778054645,126.859189595526,청과물소매
생생유통,서울특별시 구로구 신도림로19길 7,신도림동,37.5112639154445,126.884466869355,식료품점
수원맘,서울특별시 서초구 방배천로18길 11,방배2동,37.4835998638928,126.983091057555,청과물소매
제마원,서울특별시 성북구 장월로11길 65-13,장위1동,37.6117877665994,127.046316744649,청과물소매
매일유업,서울특별시 도봉구 시루봉로13길 54,방학2동,37.6684130216332,127.030256228013,식료품점
이화상사,서울특별시 종로구 창경궁로 88,종로1.2.3.4가동,37.5700702891715,126.999598582226,청과물소매
풍년쌀상회,서울특별시 금천구 시흥대로68길 90,시흥1동,37.4586422392343,126.903661985483,곡물소매
왕과일,서울특별시 금천구 금하로25길 9,시흥5동,37.4513060530059,126.909329715655,청과물소매
자연청과,서울특별시 관악구 관천로15길 103,신사동,37.485795338133,126.916845391256,청과물소매
대림상회,서울특별시 동대문구 경동시장로2길 23,제기동,37.5800291569482,127.042249920902,청과물소매
방배푸줏간,서울특별시 서초구 방배로 269,방배본동,37.4966419196027,126.987731877584,육류소매
한우터,서울특별시 강남구 학동로4길 46,논현1동,37.5086251883857,127.024047588488,육류소매
지원식품,서울특별시 구로구 경인로 577,신도림동,37.5040668669735,126.880898201104,식료품점
농협부천공판장,서울특별시 양천구 남부순환로64길 23,신월3동,37.5271085995653,126.83362563461,청과물소매
레드버켓,서울특별시 광진구 아차산로30길 31,자양4동,37.5393950408787,127.067403860829,식료품점
영식품,서울특별시 용산구 청파로 100,한강로동,37.5328869119328,126.96232767751,식료품점
나눔축산운동본부,서울특별시 강동구 올림픽로 528,성내1동,37.529394399996,127.12038771531,육류소매
과일농장,서울특별시 동대문구 사가정로 65,전농1동,37.5754938632618,127.049677982719,청과물소매
제일청과,서울특별시 광진구 능동로47길 37,중곡1동,37.5634843738599,127.080584823623,청과물소매
할머니참기름,서울특별시 강남구 강남대로126길 19,논현1동,37.5097154390123,127.024044704483,식료품점
새서울청과,서울특별시 도봉구 덕릉로57길 44,창2동,37.6402341322929,127.036412676397,청과물소매
한농상사,서울특별시 금천구 독산로28길 12,시흥4동,37.4562075177901,126.906376306937,수산물소매
영광,서울특별시 중랑구 봉화산로4길 62,중화2동,37.5991593115255,127.07514052288,육류소매
임페리아,서울특별시 중구 마른내로 161,광희동,37.5647444444436,127.005918082856,식료품점
지구촌유통,서울특별시 서초구 동작대로 164,방배본동,37.4912764312812,126.983043532058,수산물소매
신가네고깃간5호점,서울특별시 양천구 곰달래로13길 31-1,신월1동,37.5325457638419,126.835849078939,육류소매
동혁한미축산,서울특별시 송파구 성내천로 114,오금동,37.4994854800913,127.14082449495,육류소매
근영유통,서울특별시 마포구 창전로2길 27,신수동,37.5490491643262,126.933732157514,식료품점
대아청과,서울특별시 강서구 남부순환로19길 59,발산1동,37.5468959540553,126.824603694378,청과물소매
문화식품,서울특별시 영등포구 영등포로53길 41,영등포동,37.5215480759068,126.908930211503,식료품점
고려H&H센터,서울특별시 중구 장충단로 205,장충동,37.5630924250737,127.006619180232,식료품점
경북청과,서울특별시 서대문구 수색로 36,남가좌1동,37.5699455559553,126.915084519083,청과물소매
쌍용반찬,서울특별시 송파구 동남로 193,가락2동,37.4946564991978,127.129842372307,식료품점
홍제상회,서울특별시 중구 남대문시장4길 21,회현동,37.5591777824993,126.977639243073,식료품점
삼진유통,서울특별시 광진구 아차산로59길 48,구의3동,37.5404785681395,127.090802613198,수산물소매
경동약초,서울특별시 동대문구 왕산로 129,제기동,37.5783805536363,127.037855679379,청과물소매
한우,서울특별시 노원구 한글비석로48길 25,상계5동,37.6654400575214,127.067177875585,육류소매
상현유통,서울특별시 마포구 성미산로11길 122,성산1동,37.5660583801858,126.915661595031,수산물소매
동원양곡,서울특별시 중랑구 상봉로11길 44,면목본동,37.5898759235165,127.091039966484,청과물소매
논골정육점,서울특별시 서대문구 연희로41가길 111,홍은2동,37.5935743252294,126.934274827326,육류소매
인덕청과,서울특별시 노원구 월계로 337-1,월계2동,37.6299075330155,127.057516469291,청과물소매
우리정육점,서울특별시 노원구 상계로23다길 13-8,상계2동,37.6599960916627,127.069240754228,육류소매
동원에프앤비지엔씨영동세,서울특별시 강남구 언주로 211,도곡1동,37.4927951351961,127.046293864724,식료품점
일동강서,서울특별시 양천구 화곡로3가길 9,신월5동,37.541699437222,126.828476035888,식료품점
과일야채,서울특별시 성북구 동소문로 257,길음1동,37.6041317536157,127.024613230073,청과물소매
서울청과,서울특별시 영등포구 도신로60길 10,신길1동,37.51097223327,126.917024591252,청과물소매
일조F&V,서울특별시 강동구 고덕로10길 50,암사1동,37.5525195806287,127.129453010521,청과물소매
보경식품,서울특별시 강북구 도봉로 211,미아동,37.6274931074519,127.025395590847,식료품점
조흥정육점,서울특별시 성북구 화랑로25길 27,월곡2동,37.6096588327766,127.051599278403,육류소매
우리동네정육점,서울특별시 금천구 시흥대로 163,시흥1동,37.4484671568404,126.902454296083,육류소매
1박2일,서울특별시 중랑구 겸재로24길 36,면목5동,37.5854442113259,127.081911275162,수산물소매
초록마을,서울특별시 강남구 개포로82길 9-15,개포2동,37.4889695207103,127.068234669775,유기농식품판매
형제푸줏간,서울특별시 서초구 고무래로8길 6,반포4동,37.5024646994919,127.010295730221,육류소매
우이정육점,서울특별시 강북구 삼양로163길 7,우이동,37.6585499443023,127.01325948852,육류소매
선&산상사,서울특별시 중구 을지로30길 47,광희동,37.5650113111816,126.999111591337,수산물소매
푸드뱅크BK,서울특별시 강북구 인수봉로 260,인수동,37.6419436808766,127.0110770034,청과물소매
대지식품,서울특별시 도봉구 덕릉로60길 109-7,창3동,37.6357775804317,127.04238456342,식료품점
홍이뜰,서울특별시 영등포구 도영로 2-11,대림3동,37.5063228359451,126.894651898145,청과물소매
대원상회,서울특별시 송파구 충민로4길 5,장지동,37.4795719014818,127.129734656463,식료품점
황씨청과일,서울특별시 도봉구 도당로13가길 8,방학2동,37.6655766706311,127.035983132203,청과물소매
한우물농산물,서울특별시 관악구 법원단지길 94,난곡동,37.4745006866723,126.922265537034,청과물소매
명성유통,서울특별시 강동구 아리수로72길 60-27,고덕2동,37.5610334732249,127.162948433602,식료품점
야채,서울특별시 성북구 장월로33길 5-22,장위1동,37.6184330496388,127.050241808895,청과물소매
북청상사,서울특별시 강동구 아리수로78길 43-10,고덕2동,37.5605014628486,127.164165499812,식료품점
경원나루,서울특별시 구로구 남부순환로 1291,가리봉동,37.4788827841689,126.894310012952,청과물소매
정읍농축산물직판장,서울특별시 금천구 시흥대로58길 26,시흥1동,37.4536499214702,126.902638521962,수산물소매
석신식품2호,서울특별시 성동구 마장로37길 55,마장동,37.5702841811347,127.04167286956,육류소매
포천농장,서울특별시 강북구 인수봉로78길 5,인수동,37.6445662484163,127.011144217918,육류소매
초록마을,서울특별시 송파구 양재대로 1222,오륜동,37.5157231511018,127.131045765864,유기농식품판매
법인진명축산,서울특별시 성동구 청계천로10가길 14,마장동,37.5699102148451,127.0333799922,육류소매
한살림생협봉천매장,서울특별시 관악구 양녕로 74,성현동,37.4885705315387,126.946736967197,유기농식품판매
세화유통,서울특별시 중구 을지로32길 34,광희동,37.565280640479,127.0000588186,수산물소매
땅과바다건어물,서울특별시 관악구 관천로 27-1,신원동,37.4822175154964,126.927638499408,수산물소매
삼광상회,서울특별시 영등포구 영신로 130,영등포동,37.519134271717,126.901261650884,식료품점
명품닭집,서울특별시 강서구 강서로16길 14,화곡8동,37.5327096944312,126.847047722784,육류소매
새서울청과,서울특별시 성북구 장월로1길 69,월곡2동,37.6053569941068,127.044416886295,청과물소매
롯데칠성신구로대리점델몬트,서울특별시 구로구 구일로8길 131,구로1동,37.4985310323902,126.876739870045,식료품점
현경,서울특별시 마포구 월드컵로 235,성산2동,37.565187393384,126.898468863512,청과물소매
승민이네과일,서울특별시 구로구 개봉로3길 69,개봉3동,37.4860152235629,126.852333895569,청과물소매
협진37호,서울특별시 금천구 범안로 1209,독산1동,37.4668179719467,126.896262531894,육류소매
원일,서울특별시 서대문구 통일로40안길 3-10,홍제3동,37.5910800441591,126.943470919347,육류소매
대한양곡,서울특별시 도봉구 우이천로4라길 34,창3동,37.6325942204558,127.042051536584,청과물소매
협진30호,서울특별시 금천구 범안로 1209,독산1동,37.4668179719467,126.896262531894,육류소매
협진93호,서울특별시 금천구 범안로 1209,독산1동,37.4668179719467,126.896262531894,육류소매
평창농산,서울특별시 종로구 평창11길 8-4,평창동,37.6065335670428,126.966968227298,청과물소매
국가대표FARMERSMA,서울특별시 동작구 장승배기로 38,상도2동,37.5014958966757,126.94117199548,청과물소매
성미식품,서울특별시 종로구 창경궁로 88,종로1.2.3.4가동,37.5700702891715,126.999598582226,식료품점
안양축산물도매,서울특별시 금천구 시흥대로18길 16,시흥3동,37.4402598894781,126.904540461357,육류소매
마포의료생협의원,서울특별시 마포구 월드컵로 80,서교동,37.5561979028244,126.91042846705,유기농식품판매
한마음,서울특별시 성동구 금호로16길 25-35,금호1가동,37.55663857682,127.020354514797,청과물소매
협진53호,서울특별시 금천구 범안로 1209,독산1동,37.4668179719467,126.896262531894,육류소매
협진69호,서울특별시 금천구 범안로 1209,독산1동,37.4668179719467,126.896262531894,육류소매
씨제이,서울특별시 동대문구 왕산로 214,전농1동,37.584191612425,127.051129904848,식료품점
홍주청과,서울특별시 강서구 강서로12길 10,화곡8동,37.5314992198211,126.847654693621,청과물소매
협진83호,서울특별시 금천구 범안로 1209,독산1동,37.4668179719467,126.896262531894,육류소매
이가유통,서울특별시 중구 퇴계로85길 15,황학동,37.566461991738,127.019512743054,식료품점
피제이통상,서울특별시 성북구 정릉로26가길 12,정릉2동,37.6028046691061,127.012388106907,청과물소매
협진84호,서울특별시 금천구 범안로 1209,독산1동,37.4668179719467,126.896262531894,육류소매
퍼니타임,서울특별시 강서구 강서로41길 45,화곡3동,37.544047756341,126.835421283507,식료품점
한성농산,서울특별시 강북구 인수봉로 198,인수동,37.6372851983568,127.013212204691,청과물소매
만나식품,서울특별시 중구 을지로36길 35,광희동,37.5650528062903,127.001884284467,식료품점
협진72호,서울특별시 금천구 범안로 1209,독산1동,37.4668179719467,126.896262531894,육류소매
협진95호,서울특별시 금천구 범안로 1209,독산1동,37.4668179719467,126.896262531894,육류소매
선수산업,서울특별시 서초구 반포대로19길 17,서초3동,37.4870880640345,127.008666794064,청과물소매
마담주,서울특별시 강남구 삼성로149길 3-10,청담동,37.5228429023706,127.047110689726,청과물소매
대창정육점,서울특별시 은평구 갈현로41길 13-9,갈현1동,37.624227212949,126.915462872251,육류소매
싱싱과일나라,서울특별시 구로구 구로중앙로14길 10,구로4동,37.493092140362,126.891409165157,청과물소매
푸른목장정육점,서울특별시 관악구 난곡로 53,난향동,37.4601648524634,126.919295050566,육류소매
웰빙유통,서울특별시 관악구 청림5길 72-10,청림동,37.4910413754387,126.960181593643,수산물소매
자연드림,서울특별시 강서구 금낭화로 63,방화2동,37.5710281443,126.811364883672,식료품점
매일정육점,서울특별시 동대문구 장한로6길 22,장안1동,37.5632263594087,127.067220057503,육류소매
서영푸드,서울특별시 중구 을지로32길 34,광희동,37.565280640479,127.0000588186,청과물소매
OK축산물직판장,서울특별시 노원구 상계로12길 52,상계2동,37.6559914434362,127.069868741895,육류소매
고려청과,서울특별시 성북구 종암로14길 20-28,종암동,37.5961417065294,127.036947583001,청과물소매
협진119호,서울특별시 금천구 범안로 1209,독산1동,37.4668179719467,126.896262531894,육류소매
평화정육점,서울특별시 동작구 동작대로11길 104,사당1동,37.4816081602117,126.97574604535,육류소매
대화,서울특별시 동작구 장승배기로19길 18,노량진2동,37.5082332104996,126.938882553521,육류소매
협진31호,서울특별시 금천구 범안로 1209,독산1동,37.4668179719467,126.896262531894,육류소매
협진79호,서울특별시 금천구 범안로 1209,독산1동,37.4668179719467,126.896262531894,육류소매
대주건해,서울특별시 송파구 양재대로 932,가락1동,37.4945258840774,127.108696384278,수산물소매
가은농산,서울특별시 강남구 개포로110길 15,일원2동,37.4932446858717,127.079105664258,청과물소매
우렁깍지식품점,서울특별시 서초구 효령로10길 18,방배3동,37.4774950818053,126.988849472352,식료품점
153생선,서울특별시 은평구 갈현로33길 5-1,갈현2동,37.6204151221348,126.915382321546,수산물소매
준과일유통,서울특별시 강남구 논현로63길 25,역삼1동,37.4922755298847,127.038882146547,청과물소매
왕자수산물,서울특별시 동작구 노들로 674,노량진2동,37.5148116028673,126.937963659637,수산물소매
초록마을,서울특별시 송파구 잠실로 62,잠실3동,37.5080094298205,127.090269078215,유기농식품판매
한살림생협보라매매장,서울특별시 영등포구 여의대방로 25,신길6동,37.4947062140224,126.908958959245,유기농식품판매
대원과일,서울특별시 강북구 월계로7길 59,송중동,37.6127317104952,127.033868038789,청과물소매
양문,서울특별시 중구 다산로 143-1,다산동,37.5566813695931,127.011435269906,식료품점
충남유통,서울특별시 영등포구 영등포로 237-1,영등포동,37.5196100671715,126.907872439733,육류소매
농협쌀직판장,서울특별시 강동구 고덕로24길 46,암사1동,37.5526701922972,127.135234561175,청과물소매
광진과일,서울특별시 종로구 창경궁로 88,종로1.2.3.4가동,37.5700702891715,126.999598582226,청과물소매
매일유업풀바셋신문로,서울특별시 종로구 새문안로3길 12,사직동,37.5713373346185,126.972967563172,식료품점
SM푸드,서울특별시 강남구 봉은사로 129-1,논현1동,37.5060722654236,127.028062116788,청과물소매
지오티,서울특별시 강북구 도봉로 369,수유3동,37.6403430253052,127.027720526754,식료품점
꽃보다한우,서울특별시 동작구 상도로 247,상도2동,37.5050283236247,126.946245653073,육류소매
펠리니코리아,서울특별시 광진구 자양로43길 36,구의2동,37.5522445992153,127.090580474605,식료품점
스윗홀릭,서울특별시 광진구 군자로 104-1,군자동,37.5523407880204,127.071679036243,식료품점
대성유화,서울특별시 영등포구 도신로15길 16,도림동,37.5068679548045,126.898025696244,식료품점
매일농산,서울특별시 영등포구 영신로 145,당산1동,37.5208605641591,126.90086302013,청과물소매
광진식품,서울특별시 은평구 가좌로7나길 10,응암3동,37.5853986443139,126.919049556295,식료품점
평화축산,서울특별시 강동구 천중로55길 38,길동,37.5423926374696,127.146861726641,육류소매
종로쌀과일,서울특별시 관악구 신사로14길 39,신사동,37.486875831533,126.916761945587,청과물소매
우미정육점,서울특별시 강서구 방화동로12길 14,방화1동,37.5664808149612,126.813440684913,육류소매
로얄식품,서울특별시 구로구 가마산로21길 1,구로2동,37.4939486668628,126.885719621785,식료품점
경북방앗간,서울특별시 성북구 한천로73길 8,석관동,37.6099392229713,127.063012559174,청과물소매
논두렁밭두렁,서울특별시 강서구 화곡로13길 107,화곡3동,37.5472328839129,126.832225736429,청과물소매
KY식품,서울특별시 중랑구 겸재로27길 25,면목2동,37.5887125974519,127.083920599789,식료품점
명품한우,서울특별시 강북구 삼양로123길 11,인수동,37.6446075795281,127.015007696837,육류소매
광장수산연쇄점,서울특별시 종로구 창경궁로 88,종로1.2.3.4가동,37.5700702891715,126.999598582226,수산물소매
한농마을,서울특별시 강남구 언주로 110,개포1동,37.4854018342042,127.054687483353,식료품점
한국식품정보원,서울특별시 송파구 법원로 128,문정2동,37.4864787291748,127.11942114984,식료품점
윈플러스,서울특별시 영등포구 선유서로26길 29,양평1동,37.5239400606363,126.889086192816,청과물소매
봉천식품,서울특별시 송파구 양재대로 932,가락1동,37.4945258840774,127.108696384278,식료품점
5단지정육점,서울특별시 강서구 양천로57길 36,가양2동,37.5646151318736,126.853506122961,육류소매
내고향한우마을,서울특별시 성북구 서경로 28,정릉1동,37.6061845436973,127.01574110785,육류소매
털보한우직판장,서울특별시 강북구 노해로 88,수유2동,37.6433016711495,127.022662212665,육류소매
계림원누룽지통닭전문점,서울특별시 영등포구 영신로 83,문래동,37.5151997032872,126.902552321168,식료품점
희망식품,서울특별시 광진구 동일로76길 12,중곡3동,37.5675925099456,127.079345748308,식료품점
농협유통,서울특별시 성북구 정릉로26길 23,정릉2동,37.603906471961,127.011614746811,청과물소매
삼성정육점,서울특별시 중구 퇴계로56길 60,장충동,37.5612975036479,127.005330029968,육류소매
하나물류,서울특별시 성북구 동소문로13나길 71,동선동,37.5944497705521,127.015352146876,청과물소매
아비세나,서울특별시 강남구 역삼로3길 13,역삼1동,37.4943379730052,127.031041386579,식료품점
매일유업,서울특별시 동대문구 안암로 86,제기동,37.5833394619963,127.030534343845,식료품점
평화연쇄점,서울특별시 서대문구 홍제내2가길 29,홍제1동,37.5862825811099,126.9360092437,식료품점
동광정육점,서울특별시 중랑구 겸재로3길 58,면목2동,37.5885217021803,127.076766801233,육류소매
대원농산,서울특별시 강동구 구천면로47길 39,암사1동,37.5499178983475,127.134677865915,청과물소매
로즈버드렌탈서비스,서울특별시 동대문구 사가정로 148,전농2동,37.5766337889916,127.061516773319,식료품점
전국상회,서울특별시 동대문구 고산자로36길 30,제기동,37.5791106439567,127.040099271569,청과물소매
대광식육점,서울특별시 용산구 효창원로 53,원효로2동,37.5360137739279,126.955201191326,육류소매
대성정육점,서울특별시 중구 남대문시장길 16-19,회현동,37.5596039574062,126.976909033552,육류소매
법인이곡농산,서울특별시 영등포구 국회대로 650,영등포동,37.5252524624806,126.906127135434,청과물소매
조조청과,서울특별시 송파구 양재대로 932,가락1동,37.4945258840774,127.108696384278,청과물소매
유명상회,서울특별시 영등포구 영신로 117-1,문래동,37.5182141759813,126.901150708237,식료품점
충무유통,서울특별시 은평구 통일로71가길 14,대조동,37.6132751244983,126.924807838924,식료품점
동신쌀직판장,서울특별시 성동구 독서당로 284,금호4가동,37.5474870959501,127.020734580808,곡물소매
다와요,서울특별시 중랑구 겸재로3길 28-4,면목2동,37.5871519803039,127.076749750971,청과물소매
협진127호,서울특별시 금천구 범안로 1209,독산1동,37.4668179719467,126.896262531894,육류소매
협진28호,서울특별시 금천구 범안로 1209,독산1동,37.4668179719467,126.896262531894,육류소매
협진91호,서울특별시 금천구 범안로 1209,독산1동,37.4668179719467,126.896262531894,육류소매
유창19호,서울특별시 금천구 범안로 1209,독산1동,37.4668179719467,126.896262531894,육류소매
화신청과,서울특별시 금천구 독산로24나길 13,시흥4동,37.4559206637157,126.907510765982,청과물소매
청호청과,서울특별시 영등포구 영신로 115,문래동,37.5179168724166,126.901155068045,청과물소매
보고산업,서울특별시 송파구 문정로5길 9-7,문정1동,37.4874757345774,127.12871573852,수산물소매
동이축산,서울특별시 성동구 청계천로12길 36,마장동,37.5673265923931,127.03477175078,육류소매
참맛과일,서울특별시 성북구 보국문로 168,정릉4동,37.617114150294,127.002865188494,청과물소매
협진82호,서울특별시 금천구 범안로 1209,독산1동,37.4668179719467,126.896262531894,육류소매
남도상회,서울특별시 영등포구 도림천로21길 34,대림2동,37.4882915512693,126.903206186194,식료품점
법인소르젠골드,서울특별시 동작구 사당로30길 36,사당1동,37.4832739600188,126.980822765511,청과물소매
삼화야채,서울특별시 영등포구 문래로30길 27,문래동,37.5161286302644,126.900706190944,청과물소매
강남청과,서울특별시 성북구 장위로38길 50-2,장위2동,37.6111679642948,127.051025119882,청과물소매
천우소금,서울특별시 송파구 양재대로 932,가락1동,37.4945258840774,127.108696384278,식료품점
우리집반찬,서울특별시 양천구 오목로7길 28,신월4동,37.5244890749469,126.841200937948,식료품점
비와이푸드,서울특별시 광진구 군자로15길 44,군자동,37.5554530770252,127.073292855864,식료품점
크린플러스유통,서울특별시 금천구 금하로1다길 24,독산1동,37.4533812162419,126.891226996998,식료품점
암사식품,서울특별시 강동구 상암로17길 42,암사1동,37.550145053348,127.132479695913,식료품점
천하,서울특별시 동대문구 왕산로 214,전농1동,37.584191612425,127.051129904848,식료품점
지오유통,서울특별시 은평구 갈현로23길 24-4,갈현2동,37.6176814305118,126.912057833657,식료품점
은서네과일가게,서울특별시 금천구 삼성산길 7,시흥3동,37.4341568007495,126.904222635766,청과물소매
윤호미트,서울특별시 동대문구 한천로46길 70-2,장안2동,37.5814930729676,127.072109712873,육류소매
만진물산,서울특별시 동대문구 정릉천동로 122,제기동,37.5831160867466,127.036266245966,식료품점
우리야채,서울특별시 강서구 양천로57길 37,가양2동,37.5659254837251,126.852048479234,청과물소매
평택농산,서울특별시 서초구 양재대로12길 36,양재2동,37.4586746463738,127.036622154298,청과물소매
순이푸드,서울특별시 강북구 삼양로155나길 4-3,우이동,37.657560238703,127.011277904385,수산물소매
공신상회,서울특별시 동대문구 경동시장로 3-1,제기동,37.5793329452055,127.040843641755,청과물소매
이우농산,서울특별시 양천구 중앙로48길 60,신정4동,37.5242205941759,126.858038925898,청과물소매
풍미식품,서울특별시 성북구 화랑로5길 36,월곡2동,37.604152848424,127.0392679346,식료품점
형제참기름,서울특별시 중랑구 동일로96길 20,면목5동,37.5845989182875,127.080970574143,식료품점
깨비쌀농산,서울특별시 구로구 고척로21다길 13,개봉1동,37.5034561137124,126.8446024124,청과물소매
오케이,서울특별시 중구 퇴계로56길 22,광희동,37.5628511298252,127.005784774315,식료품점
태화청과,서울특별시 마포구 월드컵로 235,성산2동,37.565187393384,126.898468863512,청과물소매
남양주축협가공센타서울분사,서울특별시 중랑구 봉화산로56길 153,신내1동,37.6014802834714,127.096765138128,육류소매
세원유통,서울특별시 송파구 양산로4길 16,거여2동,37.4891982031743,127.144945380036,청과물소매
명일수산,서울특별시 강동구 양재대로138길 21,명일1동,37.5497059134332,127.145160020695,수산물소매
바로푸드,서울특별시 도봉구 도당로13길 29-14,방학2동,37.6656065115643,127.03412386061,청과물소매
영신상회,서울특별시 영등포구 도신로51길 9,영등포본동,37.5124523400508,126.913360949898,식료품점
포어스식품,서울특별시 중랑구 면목로33길 74,면목7동,37.5765315118624,127.081737684434,식료품점
삼화유통,서울특별시 영등포구 문래로30길 27,문래동,37.5161286302644,126.900706190944,청과물소매
창세유통,서울특별시 성동구 독서당로 375,응봉동,37.5499997767958,127.029314039385,청과물소매
사러가농산물,서울특별시 양천구 목동중앙북로16길 3,목2동,37.5460152971068,126.873843666905,청과물소매
지유명차,서울특별시 강서구 까치산로28길 6,화곡6동,37.553547148799,126.854094455785,식료품점
초록마을,서울특별시 광진구 뚝섬로 552,자양3동,37.5342984266508,127.071257785585,유기농식품판매
용남상회,서울특별시 중구 을지로30길 18,을지로동,37.565944652242,126.99973299609,식료품점
수민축산,서울특별시 성동구 살곶이길 50,마장동,37.5696069970915,127.041500424512,육류소매
대박나라,서울특별시 강서구 강서로5라길 47-3,화곡8동,37.5296563194216,126.850862248297,청과물소매
뉴푸드,서울특별시 강북구 한천로124가길 34,번1동,37.6381701856878,127.030842067728,청과물소매
효진유통,서울특별시 강서구 곰달래로19가길 11,화곡1동,37.5305408824479,126.841797466631,청과물소매
대성식품,서울특별시 서대문구 증가로23나길 31,북가좌2동,37.580391272077,126.912442199612,식료품점
재복물산,서울특별시 중랑구 망우로72길 50,망우본동,37.5978406089745,127.102743139957,청과물소매
새마을유통,서울특별시 도봉구 도봉로145길 22,방학1동,37.6647554629332,127.041354991686,청과물소매
소망상회,서울특별시 서초구 안골1길 6-1,내곡동,37.4561337107529,127.06353324314,청과물소매
서울우유,서울특별시 양천구 월정로42길 8-1,신월5동,37.5402505542959,126.833205940405,식료품점
농민후계자대농쌀직매장,서울특별시 관악구 난곡로34나길 3,난곡동,37.4726756759464,126.920742909089,청과물소매
제기정육점,서울특별시 동대문구 홍릉로3길 13,제기동,37.5816992041754,127.043745666715,육류소매
도쿄타이야끼,서울특별시 동대문구 왕산로 214,전농1동,37.584191612425,127.051129904848,식료품점
싱싱과일,서울특별시 강북구 인수봉로 263,인수동,37.6421651142129,127.010620824579,청과물소매
우리야채,서울특별시 강서구 양천로28길 46,방화1동,37.5712230432953,126.820915980089,청과물소매
서림식품,서울특별시 강남구 언주로157길 3-4,압구정동,37.5236160290457,127.032484266592,식료품점
뉴승지농산,서울특별시 송파구 양재대로 932,가락1동,37.4945258840774,127.108696384278,청과물소매
신광,서울특별시 영등포구 영등포로45길 25,영등포동,37.5216330464266,126.908374650357,육류소매
빛나라유통,서울특별시 마포구 신촌로12길 35,서교동,37.5548428350787,126.93273287166,식료품점
승리유통,서울특별시 금천구 금하로 793,시흥2동,37.4517658792953,126.918183963721,청과물소매
서울상회,서울특별시 강남구 광평로39길 3,수서동,37.4851468125259,127.095781698281,청과물소매
알뜰장,서울특별시 동작구 여의대방로44길 47,대방동,37.5099138285204,126.930409455935,청과물소매
모노마트,서울특별시 용산구 이촌로 310,이촌1동,37.5171452243182,126.979864541886,식료품점
그린하우스,서울특별시 관악구 난곡로34길 36,난곡동,37.4721099466045,126.92095453865,식료품점
오켈미장애인미디어인권,서울특별시 노원구 덕릉로95길 32,상계3.4동,37.6654025020963,127.076144068074,청과물소매
본전정육점,서울특별시 서대문구 명지대1길 38,남가좌2동,37.5821088046171,126.923863642091,육류소매
세원정,서울특별시 중구 동호로 347,광희동,37.5653513609308,127.002027453493,청과물소매
해문인터네셔널,서울특별시 서초구 반포대로24길 95,서초3동,37.4891063846279,127.014045305954,수산물소매
강원물산,서울특별시 동대문구 왕산로 123,제기동,37.5784197860477,127.037141923999,청과물소매
서농농산,서울특별시 영등포구 대림로22길 11,대림1동,37.494039216576,126.902126982718,청과물소매
초록마을,서울특별시 송파구 충민로2길 28,장지동,37.4771488377273,127.127399757141,유기농식품판매
한영정육점,서울특별시 강동구 동남로65길 16,명일2동,37.5477764340693,127.155005117012,육류소매
김포청과,서울특별시 강서구 방화동로16길 36,방화1동,37.571679504619,126.812520511652,청과물소매
벽산정육점,서울특별시 금천구 금하로 793,시흥2동,37.4521988454001,126.918234239213,육류소매
태산유통,서울특별시 노원구 상계로37나길 1-5,상계3.4동,37.6722630323819,127.080071863147,식료품점
미진야채,서울특별시 양천구 오목로7길 28,신월4동,37.5244890749469,126.841200937948,청과물소매
우리농산물,서울특별시 강북구 오현로25나길 74,번2동,37.6260053687654,127.034036116333,청과물소매
천호엔케어,서울특별시 동대문구 왕산로 214,전농1동,37.584191612425,127.051129904848,식료품점
신보유통,서울특별시 양천구 오목로30길 22,신정4동,37.5229736071241,126.853951358443,청과물소매
산정식품,서울특별시 도봉구 시루봉로 107,방학3동,37.6613884450605,127.026301369518,식료품점
알뜰상회,서울특별시 중랑구 겸재로44길 6,면목본동,37.5882692754892,127.088341991498,식료품점
동명유통,서울특별시 송파구 중대로12길 18-15,가락본동,37.4927169493212,127.123441613033,청과물소매
뉴월드농수산물발효연구원,서울특별시 양천구 은행정로 58,신정4동,37.524746026215,126.859264049745,수산물소매
명성정육점,서울특별시 마포구 월드컵로13길 40,망원1동,37.5554994231941,126.907971346021,육류소매
천호엔케어,서울특별시 강남구 도곡로 401,대치4동,37.4969688477477,127.053241143879,식료품점
서울청과,서울특별시 영등포구 영신로43길 11,당산1동,37.5221504108427,126.900040888877,청과물소매
농부마을,서울특별시 금천구 시흥대로84나길 19,시흥1동,37.4598329041899,126.90185866405,청과물소매
태양Food,서울특별시 관악구 인헌17길 23,인헌동,37.4709807648628,126.969074073689,청과물소매
녹생청과,서울특별시 도봉구 덕릉로60길 147,창3동,37.6341522067192,127.043062556409,청과물소매
고려식품공업,서울특별시 영등포구 버드나루로20길 6,당산2동,37.5287164810569,126.90850901651,식료품점
동학식품,서울특별시 노원구 마들로3길 15,월계3동,37.6265010290164,127.061966366957,식료품점
노량진농수산물납세조합,서울특별시 동작구 노량진로32길 68,노량진1동,37.5109237186264,126.956682148694,수산물소매
서울우유,서울특별시 종로구 혜화로2길 27,혜화동,37.5873250998399,127.000647160969,식료품점
일조,서울특별시 강서구 개화동로8길 38,방화2동,37.5791558083236,126.798057658496,청과물소매
금수강산,서울특별시 동대문구 약령동길 80,제기동,37.5818334031655,127.038082971642,수산물소매
고기사랑,서울특별시 노원구 상계로23다길 13-8,상계2동,37.6599960916627,127.069240754228,육류소매
보라매한우백화점,서울특별시 관악구 보라매로2길 2,보라매동,37.4899985161477,126.92818313154,육류소매
민속과자,서울특별시 광진구 동일로6길 27,자양4동,37.5377299965193,127.06309083656,식료품점
호미곶간노원,서울특별시 노원구 노원로 421,상계6.7동,37.6542204305422,127.066955595767,수산물소매
목화식품,서울특별시 노원구 초안산로2길 97,월계2동,37.6330244454727,127.057431785597,식료품점
충무,서울특별시 관악구 난곡로26길 19,난곡동,37.4704531588191,126.921080101175,수산물소매
정육점,서울특별시 마포구 창전로 20,신수동,37.5445968694903,126.930615717457,육류소매
노량진농수산물납세조합,서울특별시 동작구 노량진로8나길 91-1,노량진2동,37.508861642097,126.936622802343,수산물소매
삼락축산,서울특별시 중랑구 중랑천로 316,묵2동,37.6126719822018,127.073614001689,육류소매
황대감쌀집,서울특별시 강동구 암사길 27,암사1동,37.5518645897363,127.132278685207,청과물소매
동부기름,서울특별시 강동구 상암로49길 61,명일1동,37.5492268369219,127.144950466981,식료품점
생생플러스,서울특별시 관악구 미성길 57-3,미성동,37.4743639332114,126.914217907998,청과물소매
진도유통,서울특별시 강서구 화곡로31길 40-10,우장산동,37.5448975392187,126.84120194495,청과물소매
팔도농수산물,서울특별시 용산구 새창로14길 43,용문동,37.5377273708684,126.959465745932,청과물소매
고향축산,서울특별시 송파구 문정로13길 8-1,가락2동,37.4941415482059,127.135796764061,육류소매
막퍼주는집,서울특별시 관악구 양산길 46,삼성동,37.4720358189236,126.932633943481,청과물소매
110호정육점,서울특별시 노원구 월계로 325,월계2동,37.6289453778409,127.056633619371,육류소매
고스트요거트,서울특별시 서초구 서초중앙로20길 17,서초1동,37.4923585055973,127.015042931084,식료품점
제스트코리아,서울특별시 성동구 성수일로10길 26,성수2가3동,37.5464628689195,127.053136090192,식료품점
남양축산,서울특별시 성동구 고산자로24길 17,마장동,37.5698434404815,127.039550330187,육류소매
금성닭오리서부총판점,서울특별시 양천구 목동중앙북로 7-40,목3동,37.5492549119415,126.864945136434,식료품점
대성참기름,서울특별시 구로구 디지털로19길 42,가리봉동,37.4816240170492,126.889724334626,식료품점
영진상회,서울특별시 중구 동호로12길 92,다산동,37.5591564015254,127.012172228388,식료품점
한가족농산,서울특별시 서대문구 북아현로14길 31,충현동,37.5631878498203,126.957085611519,청과물소매
하나유통,서울특별시 금천구 시흥대로104길 36,독산2동,37.4645070803127,126.899676432448,청과물소매
강산농수산물,서울특별시 도봉구 도당로 140,방학1동,37.6670390694808,127.041847025052,청과물소매
오봉술그린농산,서울특별시 송파구 동남로9길 39,가락2동,37.4954050558355,127.126271363313,청과물소매
거평축산,서울특별시 관악구 인헌길 71,인헌동,37.4723487721931,126.966828130014,육류소매
군산건어물,서울특별시 금천구 시흥대로104길 44,독산2동,37.4644669793398,126.900208312801,수산물소매
바다를사랑하는형제들,서울특별시 강동구 상암로11길 17,암사1동,37.5505406825533,127.128695134201,식료품점
대명청과,서울특별시 은평구 응암로22길 5,응암2동,37.5938842193223,126.918813585158,청과물소매
은광할인마트,서울특별시 은평구 통일로68길 4,불광1동,37.6121082667336,126.929264605192,식료품점
우리,서울특별시 강남구 자곡로 154,세곡동,37.4725244526929,127.100704695984,청과물소매
늘프르름유통,서울특별시 영등포구 신풍로 97,신길6동,37.5001503424558,126.916988652483,청과물소매
디에스유통,서울특별시 구로구 구로동로35가길 30,구로2동,37.4944460413082,126.881143557133,식료품점
한양식품도매,서울특별시 영등포구 가마산로 311,대림3동,37.4983170543976,126.89417053256,식료품점
이유콜렉션,서울특별시 강남구 봉은사로97길 10,삼성1동,37.5146898972083,127.058537487607,식료품점
보길도식용곤충연구소전국총판,서울특별시 구로구 개봉로 39-2,개봉3동,37.4892400842356,126.855959586884,식료품점
현대식품청과,서울특별시 관악구 신림로29길 3-20,서림동,37.4746142037725,126.933784369475,청과물소매
신일식품,서울특별시 중랑구 동일로109가길 26,상봉2동,37.5930791606147,127.078839355621,식료품점
협진3호,서울특별시 금천구 범안로 1209,독산1동,37.4668179719467,126.896262531894,육류소매
충북기름집,서울특별시 중랑구 면목로73길 28,면목본동,37.5886995264809,127.085721122413,식료품점
아워홈,서울특별시 동대문구 왕산로 214,전농1동,37.584191612425,127.051129904848,식료품점
남양유업잠원대리점,서울특별시 서초구 서초중앙로29길 28,반포4동,37.4999643181652,127.008688848427,식료품점
삼양사,서울특별시 종로구 종로33길 31,종로5.6가동,37.5726057660829,127.001081616785,식료품점
진양상회,서울특별시 영등포구 문래로30길 27,문래동,37.5161286302644,126.900706190944,청과물소매
영천청과,서울특별시 서대문구 영천시장길 66,천연동,37.5696594485553,126.962440318405,청과물소매
수미명가,서울특별시 동대문구 장한로32길 23-10,장안2동,37.576035635951,127.073626537931,식료품점
고유식품광천젓갈,서울특별시 강서구 발산로 24,발산1동,37.5527841239613,126.818728054496,식료품점
해우상사,서울특별시 동작구 노들로 688,노량진1동,37.5150054461214,126.944510421835,수산물소매
오뚜기수산,서울특별시 강남구 학동로4길 34,논현1동,37.509279895673,127.023677113211,수산물소매
중부건어물시장,서울특별시 중구 을지로 200,을지로동,37.5664978696002,127.000155743238,수산물소매
용미식품,서울특별시 용산구 효창원로104길 34,청파동,37.5503052306632,126.965537956651,식료품점
안성유통,서울특별시 송파구 올림픽로35길 104,잠실6동,37.5198103241711,127.099289046588,청과물소매
정육점,서울특별시 강동구 동남로49길 60-4,둔촌2동,37.5329029172019,127.146641711155,육류소매
예화원보이차,서울특별시 중구 을지로 12,명동,37.565846177204,126.978759296313,식료품점
경남기름집,서울특별시 강서구 방화동로3길 24,방화2동,37.5633840719635,126.808351005292,식료품점
안심정육점,서울특별시 노원구 석계로 65,월계1동,37.6205058404177,127.062687385568,육류소매
현대수퍼,서울특별시 서초구 서초대로1길 30,방배4동,37.4892268429129,126.983602791191,식료품점
형제야채,서울특별시 중랑구 사가정로53길 14,면목3.8동,37.5813380768754,127.089230372679,청과물소매
명진유통,서울특별시 송파구 성내천로14길 3,오금동,37.5002969269624,127.138417538515,식료품점
하나로정육점,서울특별시 도봉구 우이천로48길 4,쌍문1동,37.6557528435106,127.016027796069,육류소매
서울우유,서울특별시 동작구 매봉로 46,상도1동,37.5067886044201,126.951672583754,식료품점
다도수산,서울특별시 구로구 고척로30길 13-16,개봉1동,37.501891725388,126.849568853913,수산물소매
까르본,서울특별시 광진구 광나루로40길 30,구의1동,37.5434755950491,127.089181950696,식료품점
보령정육점,서울특별시 종로구 종로41길 49,종로5.6가동,37.5733387658286,127.0057246081,육류소매
교하식품,서울특별시 강남구 압구정로14길 28,신사동,37.5225304209032,127.023199019733,식료품점
뽀식이수산,서울특별시 영등포구 영중로24길 27-2,영등포동,37.5219300368628,126.908336384858,수산물소매
푸루아띠,서울특별시 구로구 오리로 1102-10,오류2동,37.4839633696387,126.843353617952,청과물소매
김호세,서울특별시 서대문구 통일로 181,천연동,37.5697593466611,126.962529493053,청과물소매
한길유통,서울특별시 구로구 구일로8길 132,구로1동,37.4982717021363,126.876947319814,식료품점
여주상회,서울특별시 광진구 자양로30길 78,구의1동,37.5428979281185,127.089053185178,식료품점
순우리한우,서울특별시 광진구 군자로 88,군자동,37.5510875606935,127.071581407157,육류소매
해찬송학김,서울특별시 마포구 월드컵로3길 76,합정동,37.5494777307798,126.908647689839,식료품점
형제정육점,서울특별시 서초구 전원말2길 1,방배2동,37.4659271418255,126.989039208052,육류소매
제일식품,서울특별시 서대문구 증가로 143,남가좌2동,37.5774397222967,126.921700571088,식료품점
한우사랑,서울특별시 서초구 바우뫼로7길 8,양재1동,37.4708457605041,127.025364280016,육류소매
경원상회,서울특별시 동대문구 경동시장로 7,제기동,37.5795838313208,127.040670599036,식료품점
합동상회,서울특별시 동대문구 왕산로33길 13,제기동,37.5797142871682,127.04120104208,청과물소매
횡성축산,서울특별시 금천구 금하로 816,시흥2동,37.4497732267369,126.92000966443,육류소매
거영식품,서울특별시 중랑구 봉화산로56길 40,신내1동,37.607106603633,127.098441285053,식료품점
충남정육점,서울특별시 용산구 신흥로 99,용산2가동,37.5451475512299,126.984835705783,육류소매
광천건어물,서울특별시 금천구 시흥대로148길 38-22,독산3동,37.4743384427264,126.900742009372,수산물소매
정가네정육점,서울특별시 서대문구 통일로 341,홍제1동,37.5808303103049,126.950997544925,육류소매
현대정육점,서울특별시 은평구 통일로 693,녹번동,37.6079147706705,126.931839055412,육류소매
고원식품,서울특별시 광진구 영화사로3길 50,중곡4동,37.5580519228282,127.092343479771,식료품점
가락유통,서울특별시 광진구 영화사로 18,중곡4동,37.5576045019384,127.089236365975,청과물소매
현대정육점,서울특별시 성동구 독서당로40길 25,옥수동,37.543339246883,127.019283795328,육류소매
광주상회,서울특별시 동대문구 경동시장로2길 30,제기동,37.5799062379833,127.042647753802,곡물소매
젓갈류,서울특별시 영등포구 신풍로 87,신길6동,37.5005095572158,126.915875128284,식료품점
초심청과채소,서울특별시 영등포구 당산로44길 3,당산2동,37.5319001851645,126.901063082913,식료품점
북한산광장,서울특별시 은평구 북한산로 348,진관동,37.6580389097968,126.945854780007,청과물소매
형제토종한우,서울특별시 용산구 소월로20길 62,용산2가동,37.5440617525631,126.984307252495,육류소매
오뚜기도매센터,서울특별시 영등포구 영등포로45길 20,영등포동,37.5210570838912,126.908450917856,육류소매
대복식품,서울특별시 중구 창경궁로8길 6,을지로동,37.5684288378632,126.998352708997,식료품점
깐돌이축산,서울특별시 중랑구 봉우재로71길 18,망우본동,37.5963334404021,127.098877035954,육류소매
장터정육점,서울특별시 강남구 광평로19길 10,일원본동,37.4854914280937,127.086697670142,육류소매
하나물산,서울특별시 중구 을지로32길 15,을지로동,37.5659144622839,127.000423889952,수산물소매
농산컨설팅,서울특별시 강남구 밤고개로1길 10,수서동,37.4880133628924,127.101842066177,청과물소매
샘물유통,서울특별시 도봉구 시루봉로15길 39,방학2동,37.6687310718534,127.031680317231,식료품점
화선상회,서울특별시 송파구 양재대로 932,가락1동,37.4945258840774,127.108696384278,청과물소매
싱싱수산,서울특별시 광진구 뚝섬로55길 50,자양1동,37.5333216466028,127.081158900278,수산물소매
정관장,서울특별시 중구 장충단로 275,광희동,37.5688771077496,127.008761071452,식료품점
한보농산,서울특별시 중구 퇴계로 411-34,신당동,37.5663719419417,127.017351880464,청과물소매
한빛푸드고려대보건,서울특별시 성북구 안암로 145,안암동,37.5884849860916,127.031701809695,식료품점
삼삼,서울특별시 광진구 광나루로 529,구의2동,37.5451368845992,127.088448802813,육류소매
명선3호,서울특별시 금천구 범안로 1207,독산1동,37.4666693884871,126.895789930504,육류소매
오로라코리아,서울특별시 동대문구 서울시립대로 5,답십리1동,37.5728133230885,127.044663059824,식료품점
고흥수산,서울특별시 양천구 중앙로34길 30,신정1동,37.5207633169285,126.853668416862,수산물소매
현대정육점,서울특별시 성북구 월곡로 107,월곡2동,37.6014111480398,127.041171805579,육류소매
동부상회,서울특별시 동대문구 경동시장로 18-5,제기동,37.5806765563539,127.04097358803,식료품점
시온,서울특별시 동대문구 장안벚꽃로5길 19,휘경2동,37.5820586581059,127.074140656563,식료품점
한아름정육점,서울특별시 노원구 섬밭로 229,하계2동,37.6349191469645,127.065678771891,육류소매
이레식품,서울특별시 용산구 이촌로 200,이촌1동,37.5209462564373,126.96932592969,식료품점
경화농산,서울특별시 송파구 양재대로 932,가락1동,37.4945258840774,127.108696384278,청과물소매
광성상회,서울특별시 중구 퇴계로81길 7-8,신당동,37.5661584465348,127.017682952354,곡물소매
금탑에프앤비,서울특별시 강남구 선릉로132길 50,청담동,37.5185741077623,127.045151370279,식료품점
환일종합식품,서울특별시 구로구 우마2길 50,가리봉동,37.482694645532,126.890511276922,식료품점
한양건어물,서울특별시 강동구 양재대로91길 11,성내3동,37.5277652893062,127.135273243297,수산물소매
빈티지워터스,서울특별시 광진구 아차산로78길 56,광장동,37.5513477848906,127.110057286083,식료품점
15호,서울특별시 금천구 범안로 1216,독산1동,37.4661045130704,126.897053020902,육류소매
만도상회,서울특별시 서대문구 수색로2길 47,남가좌1동,37.5706339962869,126.915482057821,곡물소매
한서정육점,서울특별시 성북구 삼양로 66,길음2동,37.6089861593809,127.023258666873,육류소매
불암하이퍼마켓,서울특별시 노원구 중계로16길 30,중계본동,37.6510230946043,127.082056471969,식료품점
에텐청과,서울특별시 서대문구 독립문로 68,천연동,37.5671138282258,126.963958505168,청과물소매
글로벌냉동식품,서울특별시 송파구 충민로 66,문정2동,37.477608217824,127.124940952848,식료품점
굿뜨래밤,서울특별시 송파구 마천로45길 18,마천2동,37.4974641343882,127.150381384573,청과물소매
승연부산물,서울특별시 성동구 고산자로24길 14-2,마장동,37.5697668507876,127.038996627397,육류소매
김포쌀집,서울특별시 광진구 자양로37가길 8-17,구의2동,37.5476473522579,127.086833877239,곡물소매
동해수산,서울특별시 중구 퇴계로85길 12,황학동,37.566274954748,127.019775545051,수산물소매
보건상회,서울특별시 동대문구 고산자로36길 3,제기동,37.5790306472822,127.039126646871,곡물소매
매실네야채,서울특별시 종로구 종로51길 37,창신2동,37.573537373912,127.011133248963,청과물소매
수도상회,서울특별시 중구 을지로30길 20,을지로동,37.5658540786441,126.999677609713,수산물소매
영미정육점,서울특별시 구로구 디지털로20길 10,가리봉동,37.4800284560416,126.89156827991,육류소매
나눔이네,서울특별시 성동구 마장로37길 45,마장동,37.5695294049848,127.040822213208,육류소매
더골든램프,서울특별시 서초구 사평대로22길 34,반포4동,37.4981219954517,126.997517026751,육류소매
영환,서울특별시 서초구 효령로46길 26-8,서초3동,37.4823841253853,127.008615878155,청과물소매
올가,서울특별시 동대문구 왕산로 214,전농1동,37.584191612425,127.051129904848,식료품점
다운상회,서울특별시 강북구 도봉로 45,송천동,37.6131368345599,127.029434059876,식료품점
성림청과,서울특별시 영등포구 영신로 139,당산1동,37.5202015244402,126.900725625412,청과물소매
생선가게,서울특별시 노원구 석계로11길 45,월계1동,37.6165592308614,127.06268029363,수산물소매
진흥축협직매장,서울특별시 관악구 신원로 23,신원동,37.4815634248772,126.928043582339,육류소매
충청도아줌마,서울특별시 성동구 마장로35다길 9,마장동,37.5697250388452,127.040502740919,육류소매
신도정육점,서울특별시 용산구 효창원로 94,용문동,37.5370236453114,126.959362373704,육류소매
으뜸축산,서울특별시 성동구 고산자로22길 8,마장동,37.569003691751,127.038225351887,육류소매
이지에프앤비,서울특별시 강남구 삼성로 766,청담동,37.5232480816268,127.048191594147,식료품점
하이축산,서울특별시 은평구 북한산로 257,진관동,37.6532589536737,126.938318110395,육류소매
대광상회,서울특별시 성동구 마장로35다길 9,마장동,37.5697250388452,127.040502740919,육류소매
성원농산,서울특별시 도봉구 우이천로4다길 63,창3동,37.6365381924878,127.039519577289,청과물소매
착한축산,서울특별시 성동구 마장로35다길 18,마장동,37.5690413275933,127.040636031939,육류소매
협동축산유통,서울특별시 성동구 마장로37길 45,마장동,37.5695294049848,127.040822213208,육류소매
황해도참기름,서울특별시 성북구 동소문로18길 12-3,삼선동,37.5916594028787,127.015694644255,식료품점
한일25호,서울특별시 금천구 범안로 1216,독산1동,37.4661045130704,126.897053020902,육류소매
협진115호,서울특별시 금천구 범안로 1209,독산1동,37.4668179719467,126.896262531894,육류소매
성산야채,서울특별시 마포구 망원로7길 17,망원2동,37.5582595684173,126.905373135841,청과물소매
육곳간,서울특별시 성북구 보국문로11길 23,정릉3동,37.6085588781975,127.008755665691,육류소매
동양축산,서울특별시 성동구 마장로35다길 10,마장동,37.569363830264,127.040405494005,육류소매
전주축산,서울특별시 종로구 종로51길 36,창신1동,37.5734853083156,127.011371671434,육류소매
법성포영광굴비,서울특별시 관악구 은천로 165,성현동,37.4862180003394,126.95374667866,식료품점
신용농산,서울특별시 송파구 양재대로 932,가락1동,37.4945258840774,127.108696384278,청과물소매
생선사랑,서울특별시 강북구 한천로162길 19,수유2동,37.6463048403498,127.019733273441,수산물소매
해광상회,서울특별시 영등포구 문래로 167-2,문래동,37.5188124238206,126.900565007939,식료품점
우정식품,서울특별시 동작구 노량진로28길 18,노량진1동,37.5120367935305,126.955184870921,식료품점
가경정육점,서울특별시 성북구 장위로38길 56-2,장위2동,37.6109435469393,127.051129908899,육류소매
유양수산,서울특별시 종로구 창경궁로 88,종로1.2.3.4가동,37.5700702891715,126.999598582226,수산물소매
어사또,서울특별시 영등포구 영등포로 219,영등포동,37.5201309370937,126.905738097436,수산물소매
영광굴비,서울특별시 강남구 개포로82길 11,개포2동,37.4885486506933,127.067425729925,수산물소매
일호상회,서울특별시 동대문구 경동시장로 3-1,제기동,37.5793329452055,127.040843641755,곡물소매
영화상사,서울특별시 성동구 고산자로24길 15,마장동,37.5699590905776,127.039367722569,육류소매
대덕상회,서울특별시 동대문구 고산자로36길 3,제기동,37.5790306472822,127.039126646871,곡물소매
떠버리농산물직판장,서울특별시 구로구 새말로12길 41,구로5동,37.5016647385249,126.887007360123,청과물소매
대일정육점,서울특별시 마포구 효창원로 253,공덕동,37.5497642305869,126.963440465329,육류소매
광천상회,서울특별시 동대문구 경동시장로8길 32,제기동,37.5808871720013,127.042499331361,청과물소매
동원청과,서울특별시 송파구 한가람로14길 15,풍납1동,37.5359800727498,127.115422251161,청과물소매
충암상회,서울특별시 동대문구 고산자로36길 3,제기동,37.5790306472822,127.039126646871,곡물소매
충남야채,서울특별시 도봉구 덕릉로57길 43,창2동,37.6401161773001,127.036312222757,청과물소매
에스엔씨엘인터내셔널,서울특별시 동작구 상도로30길 18,상도2동,37.5046640531758,126.941783243408,식료품점
하나농산물,서울특별시 도봉구 덕릉로57길 9,창2동,37.6392539175479,127.037751024355,청과물소매
신동아참기름,서울특별시 동대문구 무학로26길 30,용신동,37.5732756942937,127.031740281653,식료품점
흥국농산,서울특별시 송파구 양재대로 932,가락1동,37.4945258840774,127.108696384278,청과물소매
백현상회,서울특별시 동대문구 고산자로36길 3,제기동,37.5790306472822,127.039126646871,곡물소매
쌍둥이네,서울특별시 성동구 마장로31길 40,마장동,37.5698160228478,127.038396028428,육류소매
경기쌀직판장,서울특별시 중랑구 면목로55길 28,면목본동,37.5843735309498,127.086759080122,곡물소매
흥국한우정육점,서울특별시 은평구 연서로 455,진관동,37.6373330830211,126.933797384628,육류소매
한양정육점,서울특별시 강남구 자곡로 260,세곡동,37.4764999902711,127.111669198822,육류소매
진주상회,서울특별시 중구 퇴계로87길 29-13,황학동,37.5667747031653,127.020278380922,육류소매
홍아생선,서울특별시 강동구 고덕로79길 18,고덕2동,37.5573153165016,127.168502061224,수산물소매
서림상회,서울특별시 동대문구 고산자로36길 3,제기동,37.5790306472822,127.039126646871,곡물소매
영진수산,서울특별시 서대문구 인왕시장길 18,홍제3동,37.5910800441591,126.943470919347,수산물소매
유진상회,서울특별시 서대문구 통일로 484,홍제3동,37.5915977124202,126.942920080248,곡물소매
와이푸드,서울특별시 성동구 무학로 50,왕십리도선동,37.5693388263707,127.030727163097,육류소매
헤융식품,서울특별시 성동구 성수일로 107,성수1가2동,37.5499188418945,127.051507973319,식료품점
싱싱수산,서울특별시 성북구 장월로12길 41-1,장위2동,37.6120760997862,127.050787049125,수산물소매
효소나라,서울특별시 송파구 백제고분로19길 26,잠실본동,37.506888520204,127.087466325127,식료품점
제일농산,서울특별시 금천구 시흥대로145길 19,독산1동,37.4736045081711,126.895473102764,청과물소매
초록마을거여점,서울특별시 송파구 양산로 12,거여2동,37.4899000749882,127.14356909377,유기농식품판매
온양상회,서울특별시 성동구 고산자로24길 15,마장동,37.5699590905776,127.039367722569,육류소매
성우축산,서울특별시 영등포구 선유로43가길 24,양평2동,37.5314190039604,126.891996157818,육류소매
문성상회,서울특별시 동대문구 고산자로36길 3,제기동,37.5790306472822,127.039126646871,식료품점
우리청과,서울특별시 영등포구 영신로 167-2,당산1동,37.5225959071007,126.901437143802,청과물소매
동부청과,서울특별시 영등포구 영신로 148,영등포동,37.5208649844387,126.901338084751,청과물소매
위미청과,서울특별시 영등포구 영신로 147,당산1동,37.5209602968773,126.900929432785,청과물소매
킹축산물,서울특별시 강북구 도봉로 45,송천동,37.6131368345599,127.029434059876,육류소매
신예상회,서울특별시 영등포구 영신로37길 2-4,당산1동,37.5212224055558,126.901016089165,청과물소매
삼성상회,서울특별시 중구 을지로30길 20,을지로동,37.5658540786441,126.999677609713,수산물소매
아른생선,서울특별시 송파구 마천로45길 13,마천2동,37.4971897696314,127.149819030386,수산물소매
금옥상회,서울특별시 성동구 고산자로24길 15,마장동,37.5699590905776,127.039367722569,육류소매
칠호수입육전문,서울특별시 금천구 범안로 1209,독산1동,37.4668179719467,126.896262531894,육류소매
화천농산물,서울특별시 강북구 도봉로95길 51,수유3동,37.6423953319926,127.026379366933,청과물소매
서울우유응암2동고객센터,서울특별시 은평구 가좌로7라길 13-4,응암3동,37.5849293000263,126.916995682129,식료품점
관악식자재마트,서울특별시 관악구 청림3길 10,행운동,37.4886384998188,126.959491203487,식료품점
한솔,서울특별시 송파구 양재대로 932,가락1동,37.4945258840774,127.108696384278,청과물소매
대광상회,서울특별시 성동구 성덕정길 93,성수2가1동,37.537719906989,127.05391425682,곡물소매
다심,서울특별시 중구 남대문시장4길 28-16,회현동,37.5590046313139,126.976373943213,식료품점
세계과자할인전문점,서울특별시 노원구 상계로43길 4,상계3.4동,37.6707056335724,127.081406004548,식료품점
경강상회,서울특별시 동대문구 고산자로36길 3,제기동,37.5790306472822,127.039126646871,식료품점
시온쇼핑,서울특별시 중랑구 면목로44바길 2,면목3.8동,37.581139339643,127.092674649374,식료품점
제일식품,서울특별시 성북구 길음로 119,길음1동,37.6104875934225,127.016352651143,식료품점
장미식품,서울특별시 강북구 삼양로123길 41,인수동,37.6444589954851,127.013400595073,식료품점
금릉축산,서울특별시 성동구 고산자로24길 15,마장동,37.5699590905776,127.039367722569,육류소매
짬순이네야채,서울특별시 노원구 동일로180길 37,공릉1동,37.6226850384196,127.076231178909,청과물소매
태창상회,서울특별시 동대문구 약령중앙로 47,제기동,37.5825370300463,127.037077576949,청과물소매
그린한우백화점,서울특별시 도봉구 도봉로112길 20,창1동,37.6467249027256,127.035716910442,육류소매
건양식품,서울특별시 서초구 신반포로 176,반포4동,37.5039300142165,127.00239321346,식료품점
제철과일상회,서울특별시 광진구 자양로45길 5,구의2동,37.5513955626399,127.091484865064,청과물소매
자연드림치킨,서울특별시 양천구 목동동로 391,목5동,37.5358493735383,126.880242362545,유기농식품판매
덕창정육점,서울특별시 영등포구 영중로6길 27,영등포동,37.5177718543647,126.908838139742,육류소매
자연의식탁,서울특별시 광진구 자양로 126,구의1동,37.5389451809746,127.083601939359,수산물소매
일미식품,서울특별시 양천구 지양로 140,신월7동,37.5240190806715,126.827361077841,식료품점
양향자의행복한키친,서울특별시 강남구 논현로57길 24,도곡1동,37.4912772085509,127.03910979592,식료품점
충남건어물,서울특별시 성북구 장위로38길 35,장위2동,37.6117902557472,127.051096497978,수산물소매
여주육가공,서울특별시 성동구 마장로35다길 10,마장동,37.569363830264,127.040405494005,육류소매
영남상회,서울특별시 중구 퇴계로83길 9-7,황학동,37.5660184378919,127.018182850799,곡물소매
호성식품,서울특별시 중랑구 면목로 480,상봉2동,37.5948301738765,127.086178346161,식료품점
다희식품,서울특별시 관악구 신림로3가길 19,대학동,37.4686398243928,126.943772206494,식료품점
농시웰빙,서울특별시 광진구 동일로10길 43,자양4동,37.5376923952501,127.064030476693,유기농식품판매
나린수산,서울특별시 동대문구 한천로 193,장안2동,37.5781528451221,127.067871666904,수산물소매
녹원축산,서울특별시 동대문구 왕산로 169,제기동,37.579413387246,127.041872874593,육류소매
신반포유업,서울특별시 서초구 신반포로19길 10,반포2동,37.508388696708,126.996893376043,식료품점
큐몰장길영사과,서울특별시 송파구 양재대로68길 3-11,가락본동,37.5033393755397,127.123294818834,청과물소매
오레곤에프앤비,서울특별시 송파구 충민로 52,문정2동,37.4777916821366,127.122948903672,식료품점
하나로축산,서울특별시 도봉구 도봉로114길 46,창1동,37.6474912247413,127.036874190173,육류소매
매일유업야마야,서울특별시 종로구 새문안로3길 12,사직동,37.5713373346185,126.972967563172,식료품점
태양제분소,서울특별시 중랑구 상봉로11길 32,면목본동,37.590033619421,127.091626857215,식료품점
강원상회,서울특별시 동대문구 고산자로40길 10,제기동,37.5806887629619,127.039150624383,수산물소매
조은청과,서울특별시 강서구 화곡로19길 42,화곡3동,37.5430170814999,126.835980479488,청과물소매
전주상회,서울특별시 영등포구 영중로14길 23-7,영등포동,37.5202396663027,126.90775013761,식료품점
대박수산,서울특별시 금천구 시흥대로148길 38-13,독산3동,37.4743492397008,126.900934046237,수산물소매
농협쌀직판장,서울특별시 노원구 덕릉로115길 19,상계3.4동,37.6669325537983,127.077077234817,청과물소매
과일과일,서울특별시 도봉구 노해로70길 19,창4동,37.650782884526,127.052810396711,청과물소매
으뜸상회,서울특별시 서대문구 인왕시장길 18,홍제3동,37.5910800441591,126.943470919347,곡물소매
신흥삼우축산,서울특별시 성동구 마장로35다길 12,마장동,37.5693106931704,127.040519376335,육류소매
자연드림,서울특별시 강서구 강서로56길 100,등촌3동,37.5588930462586,126.844210936194,유기농식품판매
우리축산정육점,서울특별시 동대문구 이문로42길 91,이문2동,37.6006742268413,127.067273657173,육류소매
유로에프앤비,서울특별시 강남구 테헤란로 309,역삼1동,37.5035475783042,127.044415346319,식료품점
호남청과,서울특별시 영등포구 영신로43길 4,당산1동,37.522367204565,126.901067173773,청과물소매
정중중국식품,서울특별시 금천구 남부순환로112길 35,가산동,37.4773667984901,126.894072311156,식료품점
불광식품,서울특별시 은평구 진흥로15길 18-1,불광1동,37.6111412763729,126.931928823895,식료품점
동아정육점,서울특별시 도봉구 노해로69가길 11,창4동,37.6588801074024,127.049069427934,육류소매
덕산정육점,서울특별시 마포구 토정로31길 51-8,용강동,37.5431097368091,126.943582467535,육류소매
중국식품,서울특별시 관악구 장군봉1길 36,청룡동,37.4816083966391,126.942029347525,식료품점
수현축산,서울특별시 광진구 뚝섬로25길 16,자양3동,37.5367360731751,127.065015532973,육류소매
푸른야채,서울특별시 동대문구 경동시장로 3-1,제기동,37.5793329452055,127.040843641755,청과물소매
협진45호,서울특별시 금천구 범안로 1209,독산1동,37.4668179719467,126.896262531894,육류소매
영진상회,서울특별시 중구 퇴계로 411-21,신당동,37.5663343966341,127.017171260239,곡물소매
해송F&C,서울특별시 강남구 광평로 295,수서동,37.4883893812284,127.103895599597,수산물소매
협진86호,서울특별시 금천구 범안로 1209,독산1동,37.4668179719467,126.896262531894,육류소매
여주축협강변지점,서울특별시 광진구 강변북로 26,자양4동,37.5313124909583,127.060568822507,육류소매
협진52호,서울특별시 금천구 범안로 1209,독산1동,37.4668179719467,126.896262531894,육류소매
은혜부산물,서울특별시 성동구 마장로35다길 7,마장동,37.5695527540441,127.040369109891,육류소매
협진87호,서울특별시 금천구 범안로 1209,독산1동,37.4668179719467,126.896262531894,육류소매
협진74호,서울특별시 금천구 범안로 1209,독산1동,37.4668179719467,126.896262531894,육류소매
민족이십일,서울특별시 마포구 토정로 222,신수동,37.5446467813071,126.935141496958,식료품점
남선해물,서울특별시 중구 퇴계로87길 15-18,황학동,37.5664247428243,127.020452758578,수산물소매
함평부산물,서울특별시 성동구 마장로35다길 7,마장동,37.5695527540441,127.040369109891,육류소매
해송수산,서울특별시 종로구 종로 313,창신1동,37.5723319974587,127.012451043884,수산물소매
슈퍼,서울특별시 강남구 논현로67길 13-3,역삼1동,37.4938079945268,127.038964286509,식료품점
의성상회,서울특별시 동대문구 고산자로40길 10,제기동,37.5806887629619,127.039150624383,곡물소매
민주상회,서울특별시 도봉구 도당로15길 13,방학2동,37.6661121120781,127.036452266221,곡물소매
대화참기름,서울특별시 광진구 면목로 114,중곡1동,37.5636342755362,127.080164169688,식료품점
전북해물,서울특별시 중구 퇴계로87길 23-21,황학동,37.566548339323,127.020145510208,수산물소매
일품축산마트,서울특별시 성북구 오패산로 42,월곡2동,37.6057930524304,127.037094977687,육류소매
금륭상회,서울특별시 서대문구 통일로 484,홍제3동,37.5915977124202,126.942920080248,곡물소매
성은오토바이수리,서울특별시 은평구 연서로 319,불광2동,37.6239075082669,126.927803958997,식료품점
용인청과,서울특별시 영등포구 영신로 147,당산1동,37.5209602968773,126.900929432785,청과물소매
고향축산,서울특별시 종로구 삼일대로 428,종로1.2.3.4가동,37.5722118240185,126.987626852674,육류소매
갑당식품,서울특별시 동대문구 약령시로9길 27,제기동,37.5841067053186,127.035098600943,식료품점
할매야채,서울특별시 강동구 고덕로79길 18,고덕2동,37.5573153165016,127.168502061224,청과물소매
정원수산,서울특별시 동작구 노들로 688,노량진1동,37.5150054461214,126.944510421835,수산물소매
초록마을,서울특별시 서초구 서래로 14,반포4동,37.4961917609841,126.998345767061,유기농식품판매
장보고축삭,서울특별시 관악구 남부순환로230길 42,낙성대동,37.4782486669779,126.955327609413,육류소매
국민닭오리도소매,서울특별시 강서구 곰달래로59길 23,화곡4동,37.5333664632615,126.862742066323,육류소매
협진80호,서울특별시 금천구 범안로 1209,독산1동,37.4668179719467,126.896262531894,육류소매
우성한우직판장,서울특별시 성동구 용답19가길 24,용답동,37.5638663603137,127.052542326043,육류소매
새농,서울특별시 마포구 월드컵로 235,성산2동,37.565187393384,126.898468863512,청과물소매
바다마을,서울특별시 양천구 월정로8길 8,신월2동,37.5250465841878,126.842923230309,수산물소매
해물백화점,서울특별시 중구 퇴계로85길 19,황학동,37.5666872283138,127.01950979073,수산물소매
한보상회,서울특별시 중구 퇴계로 411-32,신당동,37.5662823183948,127.017409655705,곡물소매
영광식품,서울특별시 강동구 고덕로23길 13-11,암사3동,37.5554305544855,127.134433037774,식료품점
한빛유통,서울특별시 마포구 월드컵로 235,성산2동,37.565187393384,126.898468863512,청과물소매
만경농산,서울특별시 송파구 양재대로64길 34,가락본동,37.499486189427,127.123747015247,청과물소매
강서서정농산,서울특별시 강서구 발산로 40,발산1동,37.5554022583127,126.822851655786,청과물소매
협동,서울특별시 성동구 마장로37길 45,마장동,37.5695294049848,127.040822213208,식료품점
협동특-1호,서울특별시 성동구 마장로37길 45,마장동,37.5695294049848,127.040822213208,육류소매
조약돌,서울특별시 은평구 응암로 166,응암3동,37.586762073658,126.916414320603,식료품점
이태원과일,서울특별시 용산구 회나무로 23,이태원2동,37.5393370367537,126.989180425105,청과물소매
테무진미트,서울특별시 성북구 서경로 24,정릉1동,37.6057912820612,127.015044104678,육류소매
한만두식품,서울특별시 중구 소공로 63,회현동,37.5609095133129,126.980965925363,식료품점
충남상회,서울특별시 중구 남대문시장4길 21,회현동,37.5591777824993,126.977639243073,식료품점
다원,서울특별시 강서구 개화동로8길 38,방화2동,37.5791558083236,126.798057658496,청과물소매
희망축산,서울특별시 성동구 살곶이길 50,마장동,37.5696069970915,127.041500424512,육류소매
우성상회,서울특별시 서대문구 통일로 484,홍제3동,37.5915977124202,126.942920080248,곡물소매
뱍연참기름,서울특별시 서대문구 가재울로6길 53-87,남가좌2동,37.577001870807,126.923088061717,식료품점
대왕상회,서울특별시 영등포구 영신로37길 12,당산1동,37.5213466965316,126.899849060182,청과물소매
경기쌀상회,서울특별시 용산구 청파로93길 49-6,청파동,37.5534283089161,126.966162526442,곡물소매
대광식품,서울특별시 성동구 마장로37길 57,마장동,37.5703838371096,127.041739514003,식료품점
반값창고,서울특별시 서대문구 통일로 478,홍제3동,37.5908801018361,126.942273482498,청과물소매
제일상회,서울특별시 금천구 금하로 734,시흥5동,37.4503322200259,126.911208682369,식료품점
정읍상회,서울특별시 중구 퇴계로85길 20,황학동,37.5666896720144,127.019804069484,육류소매
경서식품,서울특별시 마포구 방울내로7길 37,망원2동,37.5614135921556,126.901535212961,식료품점
중앙상회,서울특별시 동대문구 경동시장로 3-1,제기동,37.5793329452055,127.040843641755,곡물소매
과일나라,서울특별시 영등포구 도림로 351,도림동,37.5084972599523,126.899788840446,청과물소매
착한정육점,서울특별시 금천구 독산로65길 27,독산2동,37.4637853549654,126.901518257148,육류소매
나눌터,서울특별시 성북구 솔샘로25길 20,정릉4동,37.6169420263215,127.008100676315,수산물소매
산성정육점,서울특별시 송파구 마천로51길 30-3,마천1동,37.4966974901724,127.152787615807,육류소매
낙원당약초,서울특별시 동대문구 약령중앙로 7,제기동,37.5790743387744,127.036748562678,청과물소매
상큼한과일,서울특별시 영등포구 영신로43길 10,당산1동,37.5223243241688,126.900332469026,청과물소매
오늘생선,서울특별시 광진구 동일로10길 30,자양4동,37.5379934296566,127.063359108716,수산물소매
香,서울특별시 노원구 상계로12길 45,상계2동,37.656270379195,127.069819929128,식료품점
탁원농산,서울특별시 마포구 월드컵로 235,성산2동,37.565187393384,126.898468863512,곡물소매
영일축산,서울특별시 영등포구 도림로141나길 23,문래동,37.5153458817169,126.890231664949,육류소매
제일한우촌,서울특별시 종로구 지봉로17길 6,창신3동,37.5797589375487,127.014888997151,육류소매
푸른유통,서울특별시 성북구 정릉로15길 52,정릉3동,37.6099412757956,127.002791070003,청과물소매
돼지식품,서울특별시 영등포구 영중로10길 20,영등포동,37.5188125483753,126.907375010207,식료품점
연세상회,서울특별시 동대문구 고산자로36길 3,제기동,37.5790306472822,127.039126646871,곡물소매
덕성식품,서울특별시 중구 동호로17길 271,다산동,37.5492960147656,127.006451484255,식료품점
전통한마루,서울특별시 강북구 도봉로 41-12,송천동,37.612765864746,127.029246328463,수산물소매
대성,서울특별시 성북구 성북로 28,성북동,37.5904825484116,127.004296317067,육류소매
부부수입,서울특별시 강남구 삼성로 212,대치2동,37.4996105819766,127.065897098053,식료품점
활어회시장,서울특별시 성북구 보국문로11길 23,정릉3동,37.6085588781975,127.008755665691,수산물소매
한농축산,서울특별시 강북구 삼양로 367,인수동,37.6362900982724,127.017054971253,육류소매
좋은식품,서울특별시 성동구 상원8길 1,성수1가2동,37.5489104836235,127.048250143375,식료품점
형제정육점,서울특별시 성북구 정릉로10길 22,정릉3동,37.6077488475963,127.00031732903,육류소매
협진75호,서울특별시 금천구 범안로 1209,독산1동,37.4668179719467,126.896262531894,육류소매
강남고기백화점,서울특별시 송파구 올림픽로51길 33,풍납2동,37.5327981120101,127.11766618117,육류소매
대용축산1호,서울특별시 성동구 마장로35다길 10,마장동,37.569363830264,127.040405494005,육류소매
명선21호,서울특별시 금천구 범안로 1207,독산1동,37.4666693884871,126.895789930504,육류소매
계룡유리거울,서울특별시 서초구 방배중앙로27길 17,방배본동,37.4950313137942,126.984847258669,수산물소매
용봉정육점,서울특별시 영등포구 영등포로45길 20-2,영등포동,37.5211295757791,126.908495112359,육류소매
성호유통,서울특별시 성북구 동소문로34길 24,돈암1동,37.5989834587914,127.02311765704,육류소매
초록마을마포용강점,서울특별시 마포구 토정로31길 23,용강동,37.541650520352,126.941622794888,식료품점
토종한우마을,서울특별시 종로구 보문로7길 3-1,숭인2동,37.5775719711191,127.022786108875,육류소매
풀무원샘물돈암정릉,서울특별시 성북구 북악산로1길 31-3,정릉2동,37.5992185176895,127.005946537171,식료품점
대구유통,서울특별시 동대문구 왕산로33길 17,제기동,37.5800052573091,127.041525639464,청과물소매
유림식품,서울특별시 서대문구 홍제천로6길 22,연희동,37.5741248429328,126.925755893589,식료품점
총각네목동1호점,서울특별시 양천구 목동동로 387,목5동,37.5356652213631,126.87982646781,식료품점
삼일상회,서울특별시 성북구 보문로35길 58,삼선동,37.5896061912354,127.011520810787,식료품점
임박사정육고기시장연희점,서울특별시 서대문구 연희로 237,연희동,37.5782510943,126.935648048597,육류소매
그린에프앤지,서울특별시 광진구 광나루로46길 9,구의3동,37.5433405985714,127.092714239248,식료품점
중국식품,서울특별시 동대문구 왕산로33길 45,제기동,37.5813669786477,127.041666688653,식료품점
하림닭판매장,서울특별시 관악구 신사로14길 55,신사동,37.4861929909256,126.916975338515,육류소매
총체보리한우남부유통사업,서울특별시 송파구 올림픽로 553,풍납2동,37.5312872115049,127.120467316299,육류소매
남부식품,서울특별시 서초구 효령로14길 43,방배3동,37.4772105952019,126.991408485195,식료품점
동인상회,서울특별시 강남구 광평로 295,수서동,37.4883893812284,127.103895599597,식료품점
충정,서울특별시 강동구 양재대로91길 20,성내3동,37.5280512836812,127.13495315272,청과물소매
슈퍼커피,서울특별시 서초구 반포대로28길 51,서초3동,37.4914435485897,127.011221442129,식료품점
대왕쌀야채,서울특별시 성북구 길음로 5-2,길음1동,37.604100980805,127.024160619164,식료품점
지엠에스,서울특별시 동대문구 왕산로 214,전농1동,37.584191612425,127.051129904848,식료품점
형제상회,서울특별시 동대문구 고산자로38길 15-6,제기동,37.5801954520008,127.039428685139,청과물소매
당고개수산도소매,서울특별시 노원구 상계로39길 11,상계3.4동,37.6712459358127,127.080209110163,수산물소매
금강식품초시,서울특별시 금천구 시흥대로138길 29,독산3동,37.4727827477047,126.900109083937,식료품점
만나상회,서울특별시 영등포구 문래로 163,문래동,37.5186748639075,126.900306843991,청과물소매
해오름우리식품,서울특별시 강서구 방화대로6바길 15-14,공항동,37.5557663367876,126.819609037355,식료품점
동아청과,서울특별시 관악구 조원로10길 34,조원동,37.4822815553832,126.905148360171,청과물소매
이천쌀집,서울특별시 도봉구 우이천로4라길 34,창3동,37.6325942204558,127.042051536584,곡물소매
세계백화점,서울특별시 서초구 방배로 109,방배1동,37.4837522606931,126.995639861962,식료품점
백설기,서울특별시 영등포구 의사당대로 1,여의동,37.5328978176022,126.916390813686,식료품점
여주참기름,서울특별시 노원구 광운로17길 5-3,월계1동,37.6221705958535,127.059018838847,식료품점
자연드림,서울특별시 양천구 목동동로 391,목5동,37.5358493735383,126.880242362545,식료품점
중국식품,서울특별시 동대문구 고산자로34길 5,용신동,37.577612930523,127.038748619493,식료품점
고기랑,서울특별시 동대문구 약령서길 88,제기동,37.5821829814884,127.03675379894,육류소매
한우풍,서울특별시 송파구 양재대로 932,가락1동,37.4945258840774,127.108696384278,육류소매
리원상사,서울특별시 서대문구 경기대로 83-2,충현동,37.5662972582996,126.964343359734,청과물소매
GS수퍼마켓,서울특별시 서초구 잠원로8길 25,잠원동,37.514395576229,127.011484290138,식료품점
GS수퍼마켓,서울특별시 강동구 구천면로 317,암사1동,37.5480813122684,127.134891485125,식료품점
한마음축산,서울특별시 중랑구 동일로129길 18,중화2동,37.599555982467,127.078623611974,육류소매
원일청과,서울특별시 강남구 일원로3길 55,일원1동,37.4927357857922,127.084347759591,청과물소매
협동맛사랑식품,서울특별시 송파구 양재대로 932,가락1동,37.4945258840774,127.108696384278,식료품점
영주생선,서울특별시 노원구 중계로12가길 29,중계본동,37.6483004423792,127.083019213035,수산물소매
농가축산,서울특별시 용산구 보광로 40,보광동,37.5279822295862,126.999572632122,육류소매
승리상회,서울특별시 동대문구 경동시장로 42,제기동,37.5826926598553,127.040698639781,식료품점
우리농산물,서울특별시 중랑구 공릉로2길 40,묵1동,37.6119836999809,127.080078677607,청과물소매
양서정육점,서울특별시 강서구 강서로17길 60,화곡1동,37.532665427614,126.842522671391,육류소매
오뚜기식품,서울특별시 성동구 아차산로17길 13,성수2가3동,37.5436197386194,127.063831900001,식료품점
진국수산,서울특별시 서대문구 영천시장길 60,천연동,37.5697661673189,126.962280357128,수산물소매
코리아식품,서울특별시 노원구 광운로2나길 50,월계1동,37.6186823180703,127.059991663864,식료품점
연천물산,서울특별시 동대문구 약령시로13길 5,제기동,37.583301054766,127.039060439112,청과물소매
윤학현건강식품,서울특별시 강북구 오패산로52길 52,송중동,37.625118462908,127.032461601747,식료품점
영남농산,서울특별시 송파구 송파대로30길 16,가락본동,37.4945682127255,127.119145237855,청과물소매
한국양계축산업협동조합길음뉴,서울특별시 성북구 정릉로 307,정릉1동,37.6032817272205,127.017727287567,청과물소매
제일정육점,서울특별시 송파구 올림픽로4길 17,잠실7동,37.5084357864704,127.076702140859,육류소매
정능양곡유통,서울특별시 성북구 보국문로 66,정릉4동,37.6102593907865,127.009537259085,식료품점
세계과자,서울특별시 중랑구 중랑천로20길 6-6,중화2동,37.5960315561919,127.072699250766,식료품점
나은농산,서울특별시 송파구 백제고분로44길 13-8,송파1동,37.5072136863278,127.112402513405,청과물소매
서울지방경찰청기동단,서울특별시 중구 마장로 45,신당동,37.5687922142852,127.013686377567,식료품점
온가족산해진미,서울특별시 동대문구 왕산로 214,전농1동,37.584191612425,127.051129904848,식료품점
부경청과,서울특별시 동대문구 경동시장로 4-1,제기동,37.5795267425658,127.04140723604,청과물소매
강원농산,서울특별시 동대문구 왕산로 147,제기동,37.5787735173905,127.039639418429,청과물소매
매일유업신종로대리점,서울특별시 종로구 통일로12길 51,무악동,37.5758576939469,126.96131279081,식료품점
매일유업,서울특별시 중구 만리재로 193,중림동,37.5550052429672,126.967204617155,식료품점
해인물류,서울특별시 동대문구 왕산로 214,전농1동,37.584191612425,127.051129904848,식료품점
삼진청과,서울특별시 송파구 양재대로 932,가락1동,37.4945258840774,127.108696384278,청과물소매
동일유통,서울특별시 은평구 가좌로9길 15-1,응암3동,37.5896240276764,126.915070680716,식료품점
대보정육점,서울특별시 강북구 도봉로53길 37,미아동,37.6264163281599,127.023755660009,육류소매
야미야미김치,서울특별시 강남구 삼성로 150,대치2동,37.4957125255313,127.068625876052,식료품점
야무진농산,서울특별시 노원구 한글비석로 396,상계5동,37.6622917239967,127.073564422644,청과물소매
신광농산,서울특별시 중구 퇴계로81길 13,신당동,37.566259245589,127.017885381086,청과물소매
우진10호,서울특별시 금천구 범안로 1207,독산1동,37.4666693884871,126.895789930504,육류소매
매크로,서울특별시 동대문구 왕산로 214,전농1동,37.584191612425,127.051129904848,식료품점
복음농산물직판장,서울특별시 성동구 금호로1길 39,금호4가동,37.5475909536993,127.023483194353,청과물소매
할랄미트,서울특별시 용산구 우사단로10길 39,한남동,37.5331735819505,126.997602444021,육류소매
수미상사,서울특별시 동대문구 약령시로 10,제기동,37.5825493247643,127.030872929904,식료품점
순창샘물,서울특별시 강남구 헌릉로622길 27,세곡동,37.4628485388604,127.106845649357,식료품점
자연드림,서울특별시 광진구 아차산로 471,구의3동,37.5404407185141,127.094084636403,유기농식품판매
오거리농산,서울특별시 송파구 양재대로 932,가락1동,37.4945258840774,127.108696384278,청과물소매
경기쌀상회,서울특별시 광진구 아차산로30길 39,자양4동,37.5389901435846,127.06747679676,식료품점
더프랜즈에프앤비,서울특별시 광진구 광나루로56길 85,구의3동,37.53571340911,127.095680669092,식료품점
건영하이퍼마켓,서울특별시 관악구 난곡로26길 61,난곡동,37.4700853483978,126.923233331647,식료품점
정.식품,서울특별시 중구 퇴계로6길 3-30,회현동,37.5587151696464,126.979365961177,식료품점
덕상식품,서울특별시 동대문구 약령시로14길 29,제기동,37.5815632366838,127.039207317216,식료품점
정육점,서울특별시 중랑구 동일로130길 57,중화1동,37.6003821632583,127.082894198285,육류소매
따봉과일,서울특별시 동대문구 전농로15길 21,전농1동,37.5777746075833,127.056555021642,청과물소매
한우촌,서울특별시 서대문구 북아현로 68,충현동,37.5632421107086,126.95507006129,육류소매
청운식품,서울특별시 용산구 효창원로 240,청파동,37.5485306471197,126.963536766588,식료품점
두레생협,서울특별시 구로구 도림로12길 27,구로3동,37.4865605362588,126.889594740501,유기농식품판매
생선명가,서울특별시 강북구 수유로 76,인수동,37.6361593117303,127.021917341037,수산물소매
송탄이정부대찌개,서울특별시 중랑구 동일로101길 11-14,면목2동,37.5885570577059,127.078985673862,식료품점
신용축산,서울특별시 동대문구 고산자로 458,제기동,37.5804866829161,127.038677707867,육류소매
김포상회,서울특별시 양천구 중앙로33길 9,신정3동,37.5180689514399,126.851786574527,식료품점
호남참기름집,서울특별시 용산구 새창로45길 31,원효로1동,37.534838426244,126.963952594718,식료품점
중앙상회,서울특별시 광진구 긴고랑로 187,중곡4동,37.560297206691,127.094908234364,식료품점
남양유업오류대리점,서울특별시 구로구 경인로13길 29,오류1동,37.4950576441483,126.838093638442,식료품점
참내음축산유통,서울특별시 강동구 고덕로61길 148,고덕1동,37.5612750087517,127.151343819698,육류소매
역삼담배,서울특별시 강남구 언주로103길 35,역삼1동,37.5059305938424,127.037168884952,식료품점
싱싱나라,서울특별시 마포구 망원로8길 10,망원1동,37.556992739886,126.905765164659,청과물소매
남도건어물,서울특별시 동작구 동작대로29가길 6,사당2동,37.4882529466226,126.981422281032,수산물소매
강남상회,서울특별시 영등포구 문래로30길 27,문래동,37.5161286302644,126.900706190944,식료품점
명성축산,서울특별시 강북구 도봉로19길 32,송천동,37.6180127193398,127.027399707775,육류소매
장평식품,서울특별시 동대문구 장한로10길 55,장안1동,37.5644037818015,127.070272918263,식료품점
협진96호,서울특별시 금천구 범안로 1209,독산1동,37.4668179719467,126.896262531894,육류소매
만가락중국식품,서울특별시 금천구 시흥대로148길 37-10,독산3동,37.4754219730923,126.90098617101,식료품점
모노마트,서울특별시 용산구 한강대로76길 11-44,남영동,37.542555117631,126.973668060166,식료품점
굿타임24,서울특별시 마포구 와우산로21길 14,서교동,37.5524761633888,126.923146823989,식료품점
상근이네생선조림전,서울특별시 중랑구 동일로 855,묵2동,37.6068322586344,127.078092159416,수산물소매
히노케,서울특별시 구로구 고척로21가길 3,개봉1동,37.502232929538,126.845752236261,식료품점
중국식품,서울특별시 영등포구 신길로39길 13,신길3동,37.5067758647836,126.909461946962,식료품점
음성중앙농산,서울특별시 광진구 아차산로78길 44,광장동,37.5507427688594,127.10988340294,청과물소매
대촌농축산,서울특별시 서대문구 통일로 333,홍제1동,37.5801977934059,126.951810255322,식료품점
황금한우,서울특별시 강서구 양천로 691-8,염창동,37.5505253861395,126.873413662312,육류소매
양천야채,서울특별시 양천구 목동로3길 57,신정7동,37.5094471185197,126.862143660186,청과물소매
내추럴하우스BYORGA이촌점,서울특별시 용산구 이촌로 248,이촌1동,37.5193737827583,126.975003784208,식료품점
한일,서울특별시 서초구 신반포로3길 19,반포본동,37.5029160827995,126.985961986949,육류소매
자연드림,서울특별시 영등포구 영등포로62길 1,영등포본동,37.5148837015283,126.917126433352,식료품점
장흥청과,서울특별시 중랑구 면목로44나길 1,면목3.8동,37.5810658501221,127.090150761322,청과물소매
대용축산,서울특별시 성동구 마장로35다길 9,마장동,37.5697250388452,127.040502740919,육류소매
서울칼라,서울특별시 용산구 이촌로 347,서빙고동,37.5190312155833,126.989624099605,식료품점
백운,서울특별시 도봉구 시루봉로15자길 13-6,방학2동,37.6699364377528,127.03033842265,청과물소매
일미락식품,서울특별시 성동구 상원6나길 22-20,성수1가2동,37.547614942227,127.049613313393,식료품점
자연드림양천신서점,서울특별시 양천구 신월로38길 14,신정1동,37.5207091951107,126.86111289542,유기농식품판매
안동정육점,서울특별시 성북구 동소문로18길 10,삼선동,37.591966478296,127.015781187605,육류소매
웰빙그린청과,서울특별시 양천구 목동중앙북로 14,목3동,37.5483727873689,126.865037730621,청과물소매
청송식품상사,서울특별시 중구 을지로32길 38,광희동,37.5648770381216,127.000279281279,식료품점
무공이네,서울특별시 강동구 진황도로 185,둔촌2동,37.529786657658,127.143101937782,청과물소매
엣소,서울특별시 종로구 종로50길 29,창신1동,37.570622382021,127.012733983482,식료품점
회풍식품,서울특별시 성동구 아차산로11가길 20,성수2가3동,37.5455532446898,127.062223413117,식료품점
대정야채,서울특별시 영등포구 도림로65길 13,신길5동,37.4995230505238,126.90368655641,청과물소매
중곡축산물센터,서울특별시 광진구 천호대로111길 35,중곡2동,37.5579490542654,127.082531691889,육류소매
대창정육,서울특별시 양천구 남부순환로36길 7-1,신월3동,37.5361873619869,126.826887680058,육류소매
보은농협쌀직판장,서울특별시 강북구 덕릉로 60,수유1동,37.6342901303233,127.020344326607,곡물소매
맛나식품,서울특별시 서초구 방배중앙로27길 17,방배본동,37.4950313137942,126.984847258669,식료품점
대천고추집,서울특별시 강남구 선릉로 313,역삼2동,37.4975979226013,127.051910021478,청과물소매
자양참기름집,서울특별시 광진구 자양로15길 85,자양1동,37.5347371746415,127.07895776433,식료품점
천하축산,서울특별시 금천구 범안로 1209,독산1동,37.4668179719467,126.896262531894,육류소매
한살림생협,서울특별시 강남구 언주로 314,역삼2동,37.4959243116612,127.046604650858,유기농식품판매
예전명가푸드시스템,서울특별시 종로구 종로 309-5,창신2동,37.5723723087047,127.011884486614,청과물소매
선일식품,서울특별시 중구 퇴계로56길 43,장충동,37.561879159454,127.005922198869,식료품점
자연그대로,서울특별시 동대문구 휘경로23길 52,이문1동,37.5965686201506,127.066532213328,청과물소매
진광물산,서울특별시 동대문구 고산자로36길 25,제기동,37.579253414987,127.039927615155,식료품점
푸른농장,서울특별시 마포구 월드컵로 235,성산2동,37.565187393384,126.898468863512,청과물소매
성실F&V,서울특별시 강동구 고덕로24길 45,암사1동,37.5525905131326,127.135427881161,청과물소매
서울우유도화상수고객센터,서울특별시 마포구 토정로14길 38,신수동,37.5439131944171,126.931734463181,식료품점
현진유통,서울특별시 관악구 광신길 104,삼성동,37.4637129882942,126.925992473563,식료품점
총각네,서울특별시 노원구 한글비석로 377,중계4동,37.6589201385362,127.073345646231,육류소매
삼보축산,서울특별시 구로구 개봉로11길 66-4,개봉3동,37.488351654297,126.85261476408,육류소매
한국친환경농산물가공생산자협회,서울특별시 서대문구 통일로 189,천연동,37.5702228552087,126.961957057132,청과물소매
남도수산회/두일수산,서울특별시 강서구 발산로 24,발산1동,37.5527841239613,126.818728054496,수산물소매
NH농협,서울특별시 종로구 청와대로 1,청운효자동,37.5866879813694,126.976764894473,청과물소매
물결상사,서울특별시 금천구 독산로24나길 13,시흥4동,37.4559206637157,126.907510765982,식료품점
해청식품,서울특별시 서초구 매헌로 16,양재2동,37.4624616567019,127.036935293321,식료품점
마포정육점,서울특별시 서대문구 서소문로 27,충현동,37.5602736986601,126.964845533717,육류소매
홍장군수산,서울특별시 광진구 뚝섬로 632,자양2동,37.531796568992,127.07970673547,수산물소매
지호수산,서울특별시 금천구 독산로74길 17,독산4동,37.4687580982124,126.903344690588,수산물소매
해인농수산,서울특별시 금천구 독산로32가길 9-10,시흥4동,37.4582761018123,126.90596187465,수산물소매
오계절수산,서울특별시 광진구 뚝섬로58길 88,자양2동,37.5291240147981,127.083642907805,수산물소매
달맞이수산,서울특별시 강남구 강남대로126길 18,논현1동,37.5095351543092,127.024035740802,수산물소매
태양수산,서울특별시 강동구 상암로 42,천호2동,37.5495704553867,127.127868959602,수산물소매
성바오로딸수도회알베리오네센터,서울특별시 강북구 오패산로 184,송중동,37.6181780533647,127.033265177579,청과물소매
우성농산,서울특별시 동작구 성대로16길 68,상도4동,37.4958149937059,126.938685096961,청과물소매
대림유통,서울특별시 은평구 응암로4길 24,응암3동,37.5869510868383,126.917374003162,수산물소매
영진9호,서울특별시 금천구 범안로 1209,독산1동,37.4668179719467,126.896262531894,육류소매
한주에프앤비,서울특별시 강서구 양천로 583,염창동,37.5571060005552,126.86432805766,식료품점
팔도농산,서울특별시 송파구 양재대로 932,가락1동,37.4945258840774,127.108696384278,청과물소매
백두농산,서울특별시 강남구 밤고개로26길 15,세곡동,37.4706803467202,127.105859358553,청과물소매
삼양,서울특별시 동작구 남부순환로269길 24,사당1동,37.4777428934388,126.977856527524,육류소매
예산식품,서울특별시 마포구 백범로2길 39,대흥동,37.5532863481934,126.934984624496,식료품점
마운틴유통,서울특별시 구로구 경인로 110,오류2동,37.4917662260615,126.836912041034,식료품점
선어매장,서울특별시 동대문구 왕산로 214,전농1동,37.584191612425,127.051129904848,식료품점
부림상회,서울특별시 동대문구 경동시장로10길 49-3,제기동,37.5816149998693,127.043361798243,식료품점
창원건어물과일,서울특별시 노원구 동일로180길 41,공릉1동,37.6227143722243,127.07652534875,수산물소매
호간민,서울특별시 강서구 공항대로59다길 33-10,등촌1동,37.5531830862565,126.865847543758,식료품점
소빈하우스,서울특별시 서대문구 포방터2길 67-11,홍은1동,37.5966285349244,126.951341998651,식료품점
중국식품전문점,서울특별시 구로구 구로중앙로14길 26,구로4동,37.493540592291,126.892148895643,식료품점
민속식품,서울특별시 강서구 남부순환로19길 16,발산1동,37.5463775766325,126.822314608481,식료품점
옥당폐백전문본점,서울특별시 강남구 도산대로66길 12,청담동,37.5228914879035,127.044202619035,식료품점
한살림생협,서울특별시 도봉구 도봉로150길 31,방학1동,37.6663699828088,127.044893350668,유기농식품판매
미래식품,서울특별시 서초구 매헌로 16,양재2동,37.4624616567019,127.036935293321,식료품점
호남상회,서울특별시 은평구 증산로3길 12,증산동,37.5814581871659,126.905044879025,식료품점
동부가야농장,서울특별시 광진구 능동로43길 5,중곡1동,37.561046553042,127.081101492108,식료품점
경진고추상회,서울특별시 관악구 원신6길 5,삼성동,37.4675074130227,126.931070471846,식료품점
은성유통,서울특별시 중구 을지로32길 35-2,광희동,37.5648884432511,127.00056211276,식료품점
천지연농산,서울특별시 송파구 양재대로 932,가락1동,37.4945258840774,127.108696384278,청과물소매
석수할인마트,서울특별시 금천구 삼성산길 9,시흥3동,37.4341233815689,126.904505611398,식료품점
토브농산,서울특별시 강남구 언주로30길 57,도곡2동,37.4892992237675,127.054163435442,청과물소매
우리야채,서울특별시 양천구 목동동로 100,신정6동,37.5149720441418,126.86511393091,청과물소매
해선과일야채,서울특별시 중랑구 면목로 465,상봉2동,37.5934773319706,127.086013709056,청과물소매
대원,서울특별시 은평구 불광로 9,대조동,37.6095861396981,126.927364008578,육류소매
23.충청농산,서울특별시 송파구 양재대로 932,가락1동,37.4945258840774,127.108696384278,청과물소매
한살림생협금호매장,서울특별시 성동구 금호로 100,금호1가동,37.5544970170153,127.026154629814,유기농식품판매
한우리축산물판매점,서울특별시 마포구 월드컵북로 502-36,상암동,37.5863055385645,126.881955235307,육류소매
만석지기,서울특별시 구로구 서해안로 2272,오류2동,37.4899053615239,126.83826391728,청과물소매
한남슈퍼정육점,서울특별시 양천구 목동서로 38,목5동,37.5412839889432,126.878486367164,육류소매
경기쌀백화점,서울특별시 송파구 위례성대로22나길 23,오금동,37.5088029533713,127.129813916987,식료품점
형제농산,서울특별시 강북구 삼양로24가길 15,송천동,37.6177686374606,127.022939894841,청과물소매
한살림생협중계매장,서울특별시 노원구 한글비석로15길 15,중계4동,37.6574770888898,127.07431559278,유기농식품판매
제너시스,서울특별시 광진구 천호대로 698,구의2동,37.5491709564134,127.091613720753,육류소매
성은청과,서울특별시 동작구 서달로2길 29,흑석동,37.5014137934802,126.963408063134,청과물소매
싱싱과일야채,서울특별시 성동구 무학봉길 54-1,왕십리2동,37.5604561837012,127.028736967537,청과물소매
농부농산,서울특별시 광진구 용마산로 12,중곡4동,37.5547626170027,127.088772965727,청과물소매
여성민우회생협,서울특별시 마포구 동교로 136,서교동,37.5550352224718,126.91724738438,식료품점
백년손님,서울특별시 성북구 길음로9길 40,길음1동,37.6058405642251,127.02096673116,식료품점
광일상회,서울특별시 강동구 상암로 41,암사1동,37.5501495873825,127.128201728644,청과물소매
민박사정육점,서울특별시 중구 청구로 87-2,다산동,37.560510659897,127.012493909664,육류소매
투미농산물,서울특별시 종로구 사직로8길 42,사직동,37.5737623202282,126.973104070469,청과물소매
라이프루츠,서울특별시 마포구 양화로 157,서교동,37.556682018566,126.922927847689,청과물소매
입장상회농산물,서울특별시 구로구 구로동로22길 17-11,구로4동,37.4897648820364,126.885408615377,청과물소매
청록,서울특별시 중랑구 사가정로 425,면목7동,37.5806741030695,127.091933054921,청과물소매
한샘,서울특별시 노원구 상계로1길 62-57,상계2동,37.6590231898921,127.062441350932,청과물소매
유황농산물,서울특별시 노원구 동일로 1530,상계9동,37.6650607786313,127.058001589213,청과물소매
매일농산물,서울특별시 강서구 방화대로6다길 34,공항동,37.5561732759541,126.818855639218,청과물소매
농산물직판장,서울특별시 광진구 천호대로 808,광장동,37.5448447757503,127.103254217532,청과물소매
싱싱청과,서울특별시 용산구 이촌로 248,이촌1동,37.5193918015837,126.975003537722,청과물소매
자연드림,서울특별시 용산구 이촌로64길 14,이촌1동,37.5205017073519,126.970010801835,식료품점
농산물,서울특별시 양천구 목동남로4길 6-46,신정7동,37.506661307791,126.864787344717,청과물소매
복이네야채청과,서울특별시 구로구 개봉로 17-1,개봉3동,37.487330044441,126.855977409604,청과물소매
희주청과,서울특별시 강남구 언주로 110,개포1동,37.4834551578396,127.053513457799,청과물소매
서울농산,서울특별시 종로구 지봉로 61-1,창신1동,37.5756727155064,127.015429633832,청과물소매
하나야채,서울특별시 강북구 삼양로27길 19,삼각산동,37.6168373729327,127.020380795938,청과물소매
봉일정육점,서울특별시 관악구 은천로 28,은천동,37.4859185601308,126.938361515567,육류소매
홍이청과,서울특별시 양천구 남부순환로56가길 5-1,신월3동,37.5320841279235,126.830165195976,청과물소매
청기농산,서울특별시 관악구 쑥고개로1가길 6,서원동,37.4779143834509,126.938045128553,청과물소매
주안애청과,서울특별시 양천구 신목로5길 9,신정2동,37.5175372819137,126.873298956964,청과물소매
우리청과,서울특별시 관악구 난곡로43길 31,미성동,37.4756700745664,126.914176399633,청과물소매
동글이네과일야채,서울특별시 노원구 동일로 1379,상계6.7동,37.6517934696306,127.060877695043,청과물소매
자연드림생협연대쌍문점,서울특별시 도봉구 도당로 7,쌍문2동,37.6587277238356,127.034745665547,유기농식품판매
한살림생협,서울특별시 동작구 동작대로29길 69,사당2동,37.4884404676726,126.978095245091,유기농식품판매
국일상회,서울특별시 중구 을지로32길 24,광희동,37.5657039869615,127.000041840133,식료품점
청수생약,서울특별시 동대문구 약령중앙로 53,제기동,37.5831773499268,127.037148584456,청과물소매
지리산축산,서울특별시 중랑구 공릉로2라길 15,묵1동,37.6128583220703,127.081313840024,육류소매
유진청과,서울특별시 용산구 이촌로88길 3,이촌1동,37.5180452059222,126.978698439822,청과물소매
다시오고싶은집이명숙양평해장국,서울특별시 강남구 언주로30길 57,도곡2동,37.4892992237675,127.054163435442,식료품점
중앙참기름,서울특별시 중구 마른내로 113,광희동,37.5646536235772,127.00049733406,식료품점
청량수산,서울특별시 동대문구 고산자로36길 33,제기동,37.5793643826627,127.04027715932,수산물소매
태양수산,서울특별시 중구 동호로7길 38,약수동,37.5521866965829,127.010543976739,수산물소매
어진수산,서울특별시 송파구 백제고분로48길 31,방이2동,37.5107677188622,127.116522977619,수산물소매
강건수산,서울특별시 송파구 송파대로32길 8,가락본동,37.4959371815463,127.117851237813,수산물소매
중앙민물수산,서울특별시 영등포구 디지털로37다길 4,대림2동,37.4908258034227,126.898611976622,수산물소매
청춘청과,서울특별시 강북구 도봉로 255,수유1동,37.6311298266091,127.023886604009,청과물소매
장흥수산,서울특별시 금천구 독산로22길 28,시흥4동,37.453408840477,126.90773944423,수산물소매
고흥수산,서울특별시 성북구 화랑로14길 14,월곡2동,37.6041906210077,127.045032050309,수산물소매
보스수산,서울특별시 광진구 동일로56가길 19-3,군자동,37.5549815561004,127.072913885639,수산물소매
의리수산,서울특별시 노원구 덕릉로 662,중계4동,37.6566698440582,127.075934949777,수산물소매
대성수산,서울특별시 강남구 삼성로 212-2,대치2동,37.4957651271123,127.062744559195,수산물소매
정우수산,서울특별시 강서구 초록마을로3길 16,화곡본동,37.5448587450782,126.846441934298,수산물소매
수산시장,서울특별시 강북구 오현로 163,번2동,37.6269938202757,127.037014127692,수산물소매
신도봉야채,서울특별시 도봉구 도당로27길 55,방학1동,37.6698508017379,127.040802032316,청과물소매
천수고기백화점,서울특별시 노원구 상계로23다길 8,상계2동,37.6590038895189,127.06910580346,육류소매
달이네수산,서울특별시 영등포구 여의대방로59나길 6-3,신길1동,37.5151769106825,126.922585779394,수산물소매
지은수산,서울특별시 송파구 송파대로8길 20,장지동,37.4774358939677,127.129668976933,수산물소매
손미수산,서울특별시 동대문구 전농로 118,전농2동,37.575406664616,127.057909454053,수산물소매
고덕과일,서울특별시 강동구 고덕로79길 18,고덕2동,37.5573153165016,127.168502061224,청과물소매
현청과,서울특별시 도봉구 시루봉로17길 36-23,방학2동,37.6696833773578,127.032438743163,청과물소매
이레계란,서울특별시 영등포구 도신로64길 24-2,신길1동,37.5122789905633,126.920003211027,육류소매
도봉대리점,서울특별시 도봉구 노해로46길 42,쌍문3동,37.6490391924448,127.030054911179,식료품점
현대청과,서울특별시 구로구 중앙로1길 18-19,고척1동,37.4994397507724,126.862476488476,청과물소매
대풍유통,서울특별시 금천구 독산로21길 5,시흥1동,37.4535784850354,126.905623416035,수산물소매
태평양중국식품,서울특별시 광진구 자양로 55,자양1동,37.5324996921039,127.084382310373,식료품점
현대정육점,서울특별시 관악구 미성길 27,미성동,37.4746017274453,126.915582450264,육류소매
효성식품,서울특별시 중구 을지로32길 14,을지로동,37.5659482955393,127.000163088979,식료품점
야채,서울특별시 구로구 구로동로26길 11,구로2동,37.4905078436401,126.884888714809,청과물소매
푸른뜰야채,서울특별시 마포구 신수로 80,신수동,37.5486696315414,126.93460896088,청과물소매
힐링스타디움,서울특별시 강북구 인수봉로 245,인수동,37.6406098258819,127.011038030924,식료품점
더마니농산,서울특별시 강남구 도곡로 181,역삼1동,37.492087431479,127.039020257537,청과물소매
경희수산,서울특별시 동대문구 경희대로1길 11,회기동,37.5916278289383,127.051454467306,수산물소매
장수산방,서울특별시 용산구 한강대로62나길 7-4,한강로동,37.5344774392101,126.974208732324,수산물소매
수산시장,서울특별시 양천구 남부순환로 347,신월5동,37.5361937403358,126.828437714256,수산물소매
한림수산,서울특별시 영등포구 도림로 313,신길3동,37.5054569259778,126.901315108541,수산물소매
양대리수산시장,서울특별시 마포구 매봉산로2길 7,상암동,37.5788393168454,126.894746818392,수산물소매
해남수산,서울특별시 송파구 송이로36길 2,장지동,37.4867071680228,127.132026499927,수산물소매
효미역,서울특별시 강남구 광평로 240,수서동,37.4859898552638,127.098801953036,수산물소매
동강상회,서울특별시 종로구 이화장2길 37,이화동,37.5786771988983,127.006231016726,식료품점
한살림서울생협,서울특별시 은평구 진관3로 15-35,진관동,37.6426263102126,126.91743897627,유기농식품판매
미코코리아,서울특별시 송파구 송이로36길 42-11,장지동,37.4837431484547,127.128419869193,식료품점
덕흥상회,서울특별시 영등포구 영신로 145,당산1동,37.5208605641591,126.90086302013,청과물소매
NH농협,서울특별시 중구 후암로 110,회현동,37.5542898342721,126.974027761069,청과물소매
한결에프앤비,서울특별시 강남구 봉은사로6길 38,역삼1동,37.5025358558338,127.027542463964,식료품점
생선나라,서울특별시 중랑구 망우로32길 37,면목2동,37.5921918760781,127.077140435024,수산물소매
영광옥당굴비금천직판장,서울특별시 금천구 독산로24나길 13,시흥4동,37.4559206637157,126.907510765982,수산물소매
태평에프앤비,서울특별시 서초구 전원말안길 2,방배2동,37.4662072109795,126.989125872215,식료품점
호산나식품,서울특별시 영등포구 가마산로79길 19,신길1동,37.5061021506052,126.916540740925,식료품점
아가씨생선가게,서울특별시 관악구 남현길 48,남현동,37.4746476540382,126.976281967593,수산물소매
안동한우축산,서울특별시 구로구 도림로20길 6,구로3동,37.4893566062714,126.891814918715,육류소매
중국식료품,서울특별시 구로구 우마3길 10,가리봉동,37.4814538800899,126.888878853631,식료품점
선화네중국식품,서울특별시 영등포구 신길로39길 35,신길3동,37.5069507573899,126.906937158399,식료품점
아싸아싸중국식품,서울특별시 동작구 서달로 158,흑석동,37.507341655098,126.962262898911,식료품점
형제식육점,서울특별시 강서구 화곡로21길 87,화곡3동,37.544683180691,126.835897992315,육류소매
선민농산,서울특별시 송파구 양재대로 932,가락1동,37.4945258840774,127.108696384278,청과물소매
소문난,서울특별시 관악구 양지길 1,삼성동,37.4720300766025,126.932995793791,청과물소매
브라우니,서울특별시 성북구 삼선교로14길 69-2,삼선동,37.5849318243379,127.01068815495,식료품점
팝콘,서울특별시 광진구 천호대로 662,능동,37.5515821182874,127.088800372143,식료품점
담양축산,서울특별시 성북구 보국문로11길 31,정릉3동,37.6085639866043,127.008291232678,육류소매
예니체리,서울특별시 서대문구 독립문로14길 33,천연동,37.5659838054995,126.961483869149,청과물소매
에덴과수원,서울특별시 동대문구 외대역동로 76-1,휘경1동,37.5950419312054,127.064897983768,청과물소매
오경상회,서울특별시 중구 을지로32길 24,광희동,37.5657039869615,127.000041840133,수산물소매
대은식품,서울특별시 성동구 마장로37길 53-2,마장동,37.5702206550797,127.041617082526,식료품점
바릇수산,서울특별시 도봉구 도당로13가길 19,방학2동,37.6660390187357,127.036328529055,수산물소매
멍청이수산,서울특별시 영등포구 선유로 88,양평1동,37.5217249019158,126.89019374786,수산물소매
미항수산,서울특별시 중랑구 봉화산로 56,중화1동,37.6012914700243,127.080482148798,수산물소매
야채카페,서울특별시 동작구 노들로 674,노량진2동,37.5148116028673,126.937963659637,청과물소매
청춘청과야채,서울특별시 중랑구 망우로 216,상봉2동,37.5938648230613,127.076757413747,청과물소매
양평야채,서울특별시 강동구 구천면로33길 31,천호2동,37.5424719324775,127.129332215445,청과물소매
또순이야채,서울특별시 동작구 동작대로29길 17,사당2동,37.4879781770235,126.98090585682,청과물소매
서면수산,서울특별시 강서구 강서로 242,우장산동,37.5473766583893,126.836750111641,수산물소매
삼화수산,서울특별시 동대문구 경동시장로 18-8,제기동,37.5805243145553,127.041088758454,수산물소매
부자수산마켓,서울특별시 관악구 국회단지2길 19,은천동,37.4867492950749,126.940566028407,수산물소매
"우리동네야채,과일",서울특별시 강북구 노해로17길 16,수유3동,37.6407330596095,127.021494791305,청과물소매
남매야채,서울특별시 강서구 강서로 261,발산1동,37.5491532938976,126.835998224008,청과물소매
에녹농수산물,서울특별시 광진구 긴고랑로13길 15,중곡1동,37.5632419692177,127.0818555504,청과물소매
TIWI,서울특별시 용산구 녹사평대로32길 9,이태원1동,37.5336712695323,126.989392677075,식료품점
우리동네정육점,서울특별시 양천구 목동서로 285,신정6동,37.5218494377341,126.869127593149,육류소매
고흥녹동바다특산물,서울특별시 동대문구 답십리로56길 116,답십리2동,37.5679917090055,127.057991532595,수산물소매
210.청명농산,서울특별시 송파구 양재대로 932,가락1동,37.4945258840774,127.108696384278,청과물소매
협진122호,서울특별시 금천구 범안로 1209,독산1동,37.4668179719467,126.896262531894,육류소매
리원,서울특별시 양천구 목동동로 293,목1동,37.5281659049786,126.875752563272,수산물소매
장수식품,서울특별시 강서구 양천로 72,방화1동,37.5731668844251,126.811693143262,식료품점
온양상회,서울특별시 광진구 긴고랑로10길 24,중곡1동,37.561909996975,127.07974392945,식료품점
샛강유통,서울특별시 서초구 양재대로12길 36,양재2동,37.4586746463738,127.036622154298,청과물소매
한우장한돈,서울특별시 중랑구 중랑역로 124,중화2동,37.6045767728294,127.077723605657,육류소매
내추럴하우스바이올가,서울특별시 강남구 언주로30길 21,도곡2동,37.4888582783868,127.051986567424,유기농식품판매
그린푸드,서울특별시 영등포구 선유동1로 13,양평1동,37.5233393688696,126.891323755122,식료품점
곡성.오산상회,서울특별시 영등포구 문래로30길 27,문래동,37.5161286302644,126.900706190944,청과물소매
남양유업,서울특별시 구로구 개봉로15길 36,개봉2동,37.4899504245371,126.85394725548,식료품점
서연식품,서울특별시 중랑구 망우로71길 64,망우본동,37.603225695564,127.102327382416,식료품점
농부의아들,서울특별시 강남구 남부순환로 2915,대치1동,37.4929320113089,127.058867209671,청과물소매
예풍축산,서울특별시 도봉구 방학로10길 69,방학2동,37.6649902472934,127.03478925176,육류소매
한살림서울생협자양동매장,서울특별시 광진구 능동로 50,자양3동,37.5356695214728,127.069158822263,유기농식품판매
생생과일야채,서울특별시 강남구 헌릉로571길 13,세곡동,37.4664826456186,127.101274474461,청과물소매
대성청과,서울특별시 관악구 미성3길 1,미성동,37.4744198953918,126.916387776162,청과물소매
광우산지수산,서울특별시 노원구 동일로237마길 11,상계1동,37.6739218480711,127.051745493297,수산물소매
영희네,서울특별시 노원구 중계로 100,중계본동,37.6447687160558,127.083062631247,식료품점
명동김치,서울특별시 강북구 덕릉로 189,번1동,37.6359848977967,127.034654727439,식료품점
선우축산물센타,서울특별시 양천구 지양로 85,신월7동,37.5226297532806,126.832643276317,육류소매
순창문옥례식품할머니고추장,서울특별시 서초구 강남대로6길 23,양재2동,37.4672542153721,127.042345265807,식료품점
고모집,서울특별시 은평구 진흥로13길 9,대조동,37.609262520785,126.925465886486,수산물소매
용남농수산,서울특별시 성동구 동호로 104,금호4가동,37.5481044290676,127.015871583436,식료품점
케이엠농산,서울특별시 동대문구 약령시로17길 60,청량리동,37.58576369827,127.042731256913,청과물소매
오양글로벌,서울특별시 동작구 등용로14길 20,대방동,37.5124204483368,126.932590711585,수산물소매
평화축산,서울특별시 중랑구 동일로139길 43,중화2동,37.6031533288805,127.076597332196,육류소매
고향축산물,서울특별시 송파구 성내천로30길 17-7,마천2동,37.4984217856632,127.150732436671,육류소매
무림상회,서울특별시 영등포구 영신로 119,문래동,37.5182945221047,126.901070344464,식료품점
윤호종합식품,서울특별시 금천구 한내로 69-54,독산1동,37.4602052120784,126.885802319038,식료품점
서울남부두레생협,서울특별시 관악구 난우길 21,미성동,37.4749140663668,126.918200857167,유기농식품판매
신선청과,서울특별시 노원구 우이천로 66,월계2동,37.6291883460344,127.045392033996,청과물소매
서울농산,서울특별시 은평구 은평로16길 10,응암1동,37.6004991727297,126.929838697388,청과물소매
행복중심생협,서울특별시 관악구 남부순환로234길 6,낙성대동,37.4791397575546,126.957259898684,유기농식품판매
행복중심생협,서울특별시 마포구 마포대로 195,아현동,37.5523504647707,126.954271487756,유기농식품판매
북광장야채,서울특별시 구로구 경인로40길 41,개봉1동,37.4950182920122,126.859015253747,청과물소매
한일45호,서울특별시 금천구 범안로 1216,독산1동,37.4661045130704,126.897053020902,육류소매
청용상회,서울특별시 영등포구 영신로 145,당산1동,37.5208605641591,126.90086302013,청과물소매
동원쌀집,서울특별시 송파구 마천로45길 24-10,마천2동,37.4976769712547,127.15115931668,곡물소매
유창2호,서울특별시 금천구 범안로 1209,독산1동,37.4668179719467,126.896262531894,육류소매
서울상사,서울특별시 서초구 반포대로 222,반포4동,37.5023822369311,127.005840711554,식료품점
싸다구과일야채,서울특별시 관악구 봉천로 223,보라매동,37.4900730047015,126.926463253473,청과물소매
사거리야채과일,서울특별시 마포구 성미산로 78,성산1동,37.5603007167274,126.916639214378,청과물소매
성심정육도매센터,서울특별시 금천구 범안로 1209,독산1동,37.4668179719467,126.896262531894,육류소매
이천,서울특별시 광진구 광나루로37길 8,구의2동,37.5453019511433,127.087654640128,식료품점
농협홍삼유통공사,서울특별시 광진구 능동로 68,자양3동,37.5368271241519,127.069698876367,청과물소매
데캉,서울특별시 성북구 안암로 41-1,안암동,37.5809188791139,127.026546490589,식료품점
천훈농산,서울특별시 송파구 양재대로 932,가락1동,37.4945258840774,127.108696384278,청과물소매
과일천국,서울특별시 노원구 동일로180길 21,공릉1동,37.6224898058966,127.075463280497,청과물소매
오픈게이츠,서울특별시 성동구 왕십리로 222,사근동,37.554492639039,127.046594659704,식료품점
건국우유정릉보급소,서울특별시 성북구 정릉로26길 51,정릉2동,37.6030056233091,127.012713879332,식료품점
세진농산,서울특별시 강동구 상일로 74,강일동,37.5534757226132,127.173479269267,청과물소매
빠담빠담,서울특별시 중랑구 신내역로3길 40-11,신내1동,37.6180045167452,127.104924966538,식료품점
현진축산,서울특별시 영등포구 신풍로 87,신길6동,37.5005095572158,126.915875128284,육류소매
봉축산,서울특별시 성동구 마장로39가길 15,마장동,37.5665850345654,127.042184368198,육류소매
한살림생협홍제매장,서울특별시 서대문구 통일로 348,홍제2동,37.5812519096854,126.952814437477,유기농식품판매
쌍문종합식품,서울특별시 도봉구 도봉로131길 90,쌍문2동,37.6565436605377,127.033209947364,식료품점
천지식품,서울특별시 관악구 조원로16길 27,조원동,37.4831322466973,126.911399979925,식료품점
금천한우물생협자연드림시흥점,서울특별시 금천구 금하로28길 4,시흥5동,37.4498545613674,126.912176268154,유기농식품판매
톡에프앤비,서울특별시 광진구 광나루로 358,화양동,37.5477744513342,127.069642056348,식료품점
이레에프앤비코리아,서울특별시 강남구 언주로147길 29,논현2동,37.5193222847035,127.031906210694,식료품점
미림식품,서울특별시 도봉구 노해로 216,쌍문3동,37.6508310688696,127.032105438529,식료품점
정호유통박미시장시흥,서울특별시 금천구 시흥대로18길 16,시흥3동,37.4402598894781,126.904540461357,식료품점
한국유통,서울특별시 중랑구 용마공원로 20-5,망우3동,37.5936555360058,127.101004230432,식료품점
한살림생협,서울특별시 강남구 개포로 265,개포4동,37.4808109723981,127.053004090127,유기농식품판매
대보식품,서울특별시 성동구 마장로37길 53,마장동,37.570192431862,127.041470281638,식료품점
장안식품,서울특별시 동대문구 답십리로64길 67,장안1동,37.5697217954064,127.065939122499,식료품점
대성축산,서울특별시 강남구 양재대로55길 6,일원1동,37.4913156483816,127.088300389533,육류소매
믿음청과,서울특별시 양천구 월정로29길 26,신월1동,37.532755547504,126.833367978552,청과물소매
행복중심서울동북생협공릉매장,서울특별시 노원구 공릉로34길 23,공릉2동,37.6229692468634,127.080317151557,유기농식품판매
생선,서울특별시 성북구 장위로 124,장위2동,37.6132994750406,127.050533637612,수산물소매
탑토스,서울특별시 중랑구 용마산로120길 35,망우본동,37.6016330592648,127.102618319442,수산물소매
은정야채,서울특별시 강남구 남부순환로359길 21,도곡1동,37.4862156797645,127.036087680266,청과물소매
골드축산,서울특별시 중구 동호로7길 13,약수동,37.5532188945137,127.011141480416,육류소매
철원오대쌀직판장,서울특별시 강북구 덕릉로 60,수유1동,37.6342901303233,127.020344326607,곡물소매
그로존,서울특별시 강남구 테헤란로 406,대치4동,37.5044121531044,127.049946352687,청과물소매
조은나래농산물,서울특별시 구로구 신도림로11가길 36,신도림동,37.5072287309928,126.87701673126,청과물소매
그린푸드,서울특별시 중구 을지로 30,소공동,37.5653337940277,126.980984894727,식료품점
백제축산,서울특별시 송파구 가락로 261,방이2동,37.5114314654844,127.118528578828,육류소매
오뚜기건어물,서울특별시 송파구 올림픽로35길 104,잠실6동,37.5198103241711,127.099289046588,수산물소매
삼촌네과일,서울특별시 동대문구 전농로23길 44,전농1동,37.5793376334174,127.053704901654,청과물소매
홍성축산,서울특별시 송파구 성내천로23가길 14-11,마천2동,37.5027767596114,127.144881033319,육류소매
덕수농산,서울특별시 송파구 양재대로 932,가락1동,37.4945258840774,127.108696384278,청과물소매
현대정육점,서울특별시 용산구 독서당로 29,한남동,37.5310754723283,127.007360774561,육류소매
로타리식품,서울특별시 영등포구 선유로 34,문래동,37.5169282753906,126.888907350608,식료품점
시가모아,서울특별시 양천구 오목로 102-1,신월2동,37.5234200408365,126.84889895696,식료품점
자연드림양천생협신정점,서울특별시 양천구 목동동로8길 9,신정2동,37.517918278878,126.87073668636,식료품점
마마된장,서울특별시 마포구 월드컵북로54길 25,상암동,37.582082864363,126.888970006821,식료품점
하경축산,서울특별시 성동구 마장로35다길 12,마장동,37.5693106931704,127.040519376335,육류소매
포춘푸드마켓,서울특별시 중구 마른내로 153,광희동,37.5648808722952,127.00499940182,식료품점
부부전복,서울특별시 동작구 노들로 674,노량진2동,37.5148116028673,126.937963659637,식료품점
시장닭집,서울특별시 성북구 장위로38길 33,장위2동,37.6118890867906,127.051061262649,육류소매
하나로축산,서울특별시 노원구 석계로3길 38,월계1동,37.6164794947087,127.062851202992,육류소매
삼천포쥐포,서울특별시 구로구 남부순환로95길 88,개봉2동,37.4953169981278,126.851716595167,수산물소매
타로,서울특별시 광진구 아차산로21길 54,화양동,37.5442420188253,127.066177906511,식료품점
순수식탁,서울특별시 은평구 연서로 124-1,역촌동,37.6098690501309,126.916905955638,식료품점
대양냉동냉장,서울특별시 도봉구 방학로10길 28,방학2동,37.6634996264474,127.033210410813,수산물소매
한살림생협가락매장,서울특별시 송파구 오금로46길 68,가락2동,37.4926658816602,127.131165950334,유기농식품판매
파란세상,서울특별시 은평구 진관3로 77,진관동,37.6446846975568,126.920831180088,청과물소매
대성식품,서울특별시 양천구 목동중앙서로7가길 16-1,목4동,37.5339191136788,126.864928694851,식료품점
한살림생협신정매장,서울특별시 양천구 목동서로 397,신정7동,37.5155724477888,126.860093724964,유기농식품판매
과일천국,서울특별시 성북구 솔샘로24길 38,정릉4동,37.6143909811782,127.00904071259,청과물소매
박가네정육점,서울특별시 마포구 손기정로 46,공덕동,37.5563119854428,126.962093470358,육류소매
과일놀이터,서울특별시 성동구 독서당로 375,응봉동,37.5499997767958,127.029314039385,청과물소매
보람찬,서울특별시 은평구 진흥로1길 14,역촌동,37.6016239950298,126.918803504715,식료품점
설봄,서울특별시 서초구 방배중앙로 172,방배본동,37.494421797104,126.986269095904,식료품점
평화의공원별자리매점,서울특별시 마포구 증산로 32,상암동,37.5642404325509,126.892596844818,식료품점
쿠캣마켓,서울특별시 송파구 송파대로 521,잠실3동,37.5116492541803,127.100801051691,식료품점
명품정육점,서울특별시 강서구 화곡로69길 71,등촌3동,37.5619700846468,126.851135760799,육류소매
유어네이키드치즈,서울특별시 성동구 성수일로1길 10,성수1가1동,37.5418857324038,127.047558650938,식료품점
스위트타임,서울특별시 관악구 관악로 169,청룡동,37.4803928069636,126.952233683523,식료품점
자연애찬,서울특별시 성동구 금호산2길 8,금호2.3가동,37.5487186746554,127.020390277603,식료품점
동인청과,서울특별시 서초구 나루터로 37,잠원동,37.5154362457722,127.014174105345,청과물소매
모노마트,서울특별시 마포구 신촌로2길 5-8,서교동,37.5577532587186,126.927767938478,식료품점
경기상회,서울특별시 동작구 동작대로33다길 5,사당2동,37.4902477845894,126.980784557736,식료품점
장터야채소매,서울특별시 용산구 서빙고로91나길 118,서빙고동,37.5257845551794,126.996490785465,청과물소매
미영상회,서울특별시 동대문구 천호대로77길 79,장안1동,37.565407938938,127.062800893299,식료품점
환경농산,서울특별시 마포구 월드컵로 235,성산2동,37.565187393384,126.898468863512,청과물소매
하연청과,서울특별시 송파구 송이로36길 42-8,장지동,37.4839885830841,127.128711006416,청과물소매
참사랑,서울특별시 종로구 종로58길 40,숭인2동,37.5715795314177,127.018381539743,식료품점
"좋은과일,야채",서울특별시 은평구 백련산로 160,응암1동,37.5982482584783,126.926054634944,청과물소매
웰빙쌀눈쌀,서울특별시 은평구 불광로 90,불광1동,37.6150612863666,126.932982791002,곡물소매
BK유통,서울특별시 중구 다산로38길 60,동화동,37.5621404398297,127.018844968862,식료품점
서원식품,서울특별시 중구 을지로28길 15,을지로동,37.565803851314,126.999067028725,식료품점
영진정육도매상사,서울특별시 금천구 범안로 1209,독산1동,37.4668179719467,126.896262531894,육류소매
경희견과,서울특별시 금천구 시흥대로62가길 22,시흥1동,37.4555962452824,126.902643992123,청과물소매
농수산특별시,서울특별시 은평구 백련산로 146,응암1동,37.5975237704863,126.92664258419,수산물소매
신흥상회,서울특별시 종로구 창경궁로 88,종로1.2.3.4가동,37.5700702891715,126.999598582226,식료품점
총각네,서울특별시 용산구 이촌로 303,이촌1동,37.5182722821767,126.979951009003,청과물소매
엘빈즈,서울특별시 노원구 마들로3길 13,월계3동,37.6274830533343,127.063086915136,식료품점
밥과안주,서울특별시 종로구 종로 323,창신1동,37.5726199970339,127.013488730329,식료품점
제이엠유통,서울특별시 은평구 가좌로7라길 11,응암3동,37.5852600411519,126.916707831204,식료품점
착한정육점,서울특별시 노원구 동일로 1323,상계6.7동,37.6467973747271,127.062595052234,육류소매
대화정육점,서울특별시 영등포구 영등포로53길 39-1,영등포동,37.5214496014765,126.908999521749,육류소매
서울우유,서울특별시 중랑구 망우로68길 59,망우본동,37.5971707576222,127.101154452861,식료품점
청정농산,서울특별시 영등포구 양산로 230,영등포동,37.5220660114851,126.908424905972,청과물소매
약수청과,서울특별시 동작구 양녕로26길 16,상도4동,37.4978275705242,126.944073704826,청과물소매
슬기네약초,서울특별시 송파구 성내천로63길 8,위례동,37.4901892043742,127.157463565331,청과물소매
성원식품,서울특별시 강남구 봉은사로38길 12,역삼1동,37.5074292294459,127.03752289005,식료품점
내안애참기름,서울특별시 서초구 효령로23길 55,방배1동,37.4826100550949,126.992715351986,식료품점
강성농산,서울특별시 송파구 양재대로 932,가락1동,37.4945258840774,127.108696384278,청과물소매
와인하우스,서울특별시 종로구 계동길 5,가회동,37.5773729979598,126.986368248595,식료품점
형제상회,서울특별시 강서구 화곡로59길 71-18,화곡6동,37.5535762705362,126.848752149397,청과물소매
괴산물산,서울특별시 동대문구 고산자로 461,제기동,37.5808977076111,127.038253515822,청과물소매
건호유통,서울특별시 강서구 오정로 391,공항동,37.5389427169604,126.797153304317,청과물소매
건국우유,서울특별시 은평구 불광로14길 28,불광1동,37.6212305008155,126.933664913697,식료품점
벤토,서울특별시 중구 서소문로 138,소공동,37.5636442513421,126.976287824335,식료품점
우리청과,서울특별시 노원구 상계로37길 2,상계3.4동,37.6705606738469,127.078993338449,청과물소매
패밀리무역FAMILY貿易,서울특별시 용산구 이태원로 179,이태원1동,37.5347884401659,126.99359801995,식료품점
땡큐식품,서울특별시 동작구 상도로47길 96,상도1동,37.5033848694992,126.951923759292,식료품점
동원샘물,서울특별시 동작구 남부순환로269길 90-6,사당1동,37.4794754537224,126.975028932301,식료품점
꼴목생선,서울특별시 구로구 경인로19가길 14-10,오류1동,37.496179768776,126.843176529711,수산물소매
쌀마을,서울특별시 도봉구 덕릉로60길 121-44,창3동,37.635205849532,127.042992393756,청과물소매
생선백화점,서울특별시 도봉구 도당로13가길 18,방학2동,37.6658318035662,127.036331208185,수산물소매
내동농산,서울특별시 마포구 독막로19길 42-14,서강동,37.5495372682966,126.923969978582,청과물소매
히코코,서울특별시 서초구 반포대로 304,반포3동,37.5061256834299,127.000984117578,식료품점
푸른유통,서울특별시 동작구 대방동길 12-13,대방동,37.500845319996,126.927982859947,청과물소매
형제유통,서울특별시 성북구 한천로99길 62,장위3동,37.6202785075266,127.048915636148,육류소매
청정야채,서울특별시 종로구 창신길 17,창신2동,37.5724697086712,127.010603981724,청과물소매
푸른목장,서울특별시 동대문구 천장산로 47,이문1동,37.6002887297782,127.057312670391,청과물소매
삼해,서울특별시 도봉구 도봉로145길 80-8,방학1동,37.6651609693603,127.038040071745,수산물소매
온양상회,서울특별시 금천구 시흥대로148길 38-8,독산3동,37.4746716803464,126.900725822849,수산물소매
올바른과일,서울특별시 강서구 공항대로41길 75,등촌3동,37.5611394011412,126.846338093866,청과물소매
안성청과,서울특별시 중랑구 동일로139나길 39,중화2동,37.6050264301537,127.076460923189,청과물소매
곰,서울특별시 광진구 군자로6길 59,화양동,37.54536206173,127.072240874961,식료품점
이레,서울특별시 영등포구 영신로9다길 2-7,영등포본동,37.511932442618,126.906819264383,청과물소매
하림닭고기,서울특별시 관악구 신사로14길 57,신사동,37.4860940959592,126.916999380968,육류소매
진영수산,서울특별시 금천구 시흥대로142길 31,독산3동,37.473168710365,126.900917417393,수산물소매
시흥닭총판,서울특별시 금천구 독산로39길 7,시흥1동,37.459021471877,126.904718957419,육류소매
정민F/C,서울특별시 성동구 무수막길 76,금호2.3가동,37.5525600967735,127.020747428757,식료품점
올플레쉬,서울특별시 용산구 한남대로20길 21,한남동,37.5351176144166,127.008008719727,청과물소매
동원&퓨리스,서울특별시 강서구 방화대로6나길 27,공항동,37.5561883489387,126.816761596982,식료품점
가락공판장,서울특별시 마포구 도화4길 39,도화동,37.5402904508672,126.951780785475,청과물소매
대명정육점,서울특별시 강북구 한천로144길 11,수유3동,37.6416134173769,127.025528414978,육류소매
쌍둥이과일,서울특별시 마포구 월드컵북로38길 53,성산2동,37.5726968073383,126.904686392355,청과물소매
제이앤아이,서울특별시 강남구 선릉로135길 6,논현2동,37.5187758309216,127.040024272817,식료품점
축산사랑,서울특별시 중랑구 상봉로11길 37,면목본동,37.5897345592415,127.091404027959,육류소매
대명정육점,서울특별시 동작구 노량진로6길 9,노량진2동,37.5126221375618,126.935969945899,육류소매
한우돈,서울특별시 강남구 도곡로57길 18,역삼2동,37.4969581660055,127.050787196044,육류소매
고추마을,서울특별시 마포구 월드컵로 235,성산2동,37.565187393384,126.898468863512,식료품점
우리농산,서울특별시 영등포구 영중로 119,영등포동,37.527198863479,126.905171000365,청과물소매
수민마트,서울특별시 도봉구 도당로13바길 100,방학2동,37.6695876139647,127.038356999741,식료품점
노원야채,서울특별시 노원구 동일로 1402,상계6.7동,37.6537415832787,127.061113816942,청과물소매
우리농산물,서울특별시 성북구 길음로 15,길음1동,37.6043631128495,127.023171888788,청과물소매
미가담터,서울특별시 서초구 방배선행길 2,방배2동,37.4723607038566,126.984837405562,청과물소매
팔팔농수산물,서울특별시 성북구 한천로97길 48,장위3동,37.6190335065956,127.050959137349,수산물소매
여주농산,서울특별시 중랑구 중랑역로 69,중화2동,37.5995320380283,127.077865154328,청과물소매
마트25시,서울특별시 용산구 대사관로 73,한남동,37.5335249744877,127.006128959651,식료품점
그린청과,서울특별시 용산구 이태원로 22,한강로동,37.5335884037923,126.97767186257,청과물소매
혜진청과,서울특별시 중랑구 면목로22길 36,면목4동,37.5717772782012,127.085645019683,청과물소매
새농유기농,서울특별시 송파구 양재대로 932,가락1동,37.4945258840774,127.108696384278,식료품점
옥수기름,서울특별시 성동구 독서당로 303-18,금호2.3가동,37.5486494879787,127.022914855763,식료품점
소백산자연약초,서울특별시 관악구 남부순환로256라길 25,남현동,37.4715434636048,126.97367888055,청과물소매
서울약초,서울특별시 동대문구 약령중앙로 19-4,제기동,37.5801461908313,127.036700788536,청과물소매
생선이랑고기랑,서울특별시 관악구 관천로 37,신원동,37.482760720528,126.926929708921,수산물소매
영주쌀상회,서울특별시 강동구 양재대로116길 49,길동,37.5381857032887,127.143266088471,곡물소매
총각네야채가게논현점,서울특별시 강남구 도산대로50길 43,논현2동,37.5196255668617,127.038146816249,식료품점
과일트리,서울특별시 성동구 고산자로 179,행당2동,37.5561554779061,127.033897236678,청과물소매
삼부자,서울특별시 강북구 솔매로43길 71,미아동,37.6288968224375,127.022986824894,식료품점
아하과일,서울특별시 동작구 서달로 91,흑석동,37.5015232849448,126.958441571784,청과물소매
쉼,서울특별시 구로구 오리로22길 5,수궁동,37.4991270823165,126.829548640763,식료품점
우리농산물,서울특별시 강동구 천중로23길 63,천호2동,37.5473030326725,127.133202958614,청과물소매
우리농산물,서울특별시 노원구 한글비석로 452,상계5동,37.6640126639222,127.067841802683,청과물소매
우리농산물,서울특별시 양천구 목동남로4길 6-46,신정7동,37.506661307791,126.864787344717,청과물소매
아임파인청과,서울특별시 관악구 은천로 113,성현동,37.4869495050085,126.947845250275,청과물소매
라임청과,서울특별시 강서구 까치산로4길 10,화곡본동,37.5419604241297,126.843985815547,청과물소매
신이청과,서울특별시 중랑구 겸재로44길 45,면목본동,37.5885382271594,127.090501406656,청과물소매
하늘청과,서울특별시 강동구 아리수로93길 33,강일동,37.565892572553,127.173523212456,청과물소매
강서청과,서울특별시 강서구 화곡로13길 107,화곡3동,37.5472328839129,126.832225736429,청과물소매
혜숙이농수산물,서울특별시 강북구 덕릉로30길 52,미아동,37.632396737228,127.025637452182,청과물소매
소망청과,서울특별시 구로구 부일로17길 104-2,수궁동,37.4963209228681,126.830972117946,청과물소매
오일청과,서울특별시 관악구 신림로44가길 51,서원동,37.4778234380554,126.936949719213,청과물소매
엘지양곡,서울특별시 종로구 숭인동길 46,숭인2동,37.5770352575784,127.022170456335,청과물소매
우리엄마야채,서울특별시 송파구 오금로40길 54,가락2동,37.4969965567563,127.127033156489,청과물소매
청산식품,서울특별시 성동구 아차산로11길 27,성수2가3동,37.5461733100343,127.059748631602,식료품점
서울원예농협,서울특별시 중랑구 용마산로115길 108,망우본동,37.5980630921895,127.094122550962,청과물소매
향미기름집,서울특별시 동대문구 전농로15길 21,전농1동,37.5777746075833,127.056555021642,식료품점
화인미트,서울특별시 성동구 마장로33길 51,마장동,37.57015151336,127.039761457674,육류소매
뽀빠이유통,서울특별시 중구 을지로32길 34,광희동,37.565280640479,127.0000588186,수산물소매
한아름축산,서울특별시 중구 청구로 87-2,다산동,37.560510659897,127.012493909664,육류소매
동우유공압,서울특별시 광진구 구의강변로 42,구의3동,37.5355839464702,127.092898741462,식료품점
태양축산물,서울특별시 종로구 평창길 3,평창동,37.6050111613736,126.964950709068,육류소매
대박양곡,서울특별시 구로구 서해안로 2251,오류2동,37.4890532687365,126.835913796697,곡물소매
달성무역유통,서울특별시 구로구 구로동로13길 23-4,구로2동,37.4871329982727,126.883412371222,식료품점
대정,서울특별시 동대문구 경동시장로 34-1,제기동,37.5820438841899,127.040695642652,식료품점
김씨네과일,서울특별시 구로구 구로중앙로21길 50,구로2동,37.4957558865032,126.885308270564,청과물소매
건국우유시흥보급소,서울특별시 금천구 탑골로 32,시흥5동,37.4517234459335,126.912578685982,식료품점
"과일,야채나라",서울특별시 강동구 구천면로100길 5,상일동,37.550606827436,127.171688859368,청과물소매
현진정육백화점,서울특별시 영등포구 영등포로45길 3,영등포동,37.519736614572,126.907915844992,육류소매
진선명청과물,서울특별시 광진구 자양로15길 83,자양1동,37.5348018304631,127.079160636871,청과물소매
보리가실,서울특별시 양천구 목동중앙북로8라길 33,목3동,37.5464275459604,126.863267912559,식료품점
서울유통,서울특별시 중랑구 동일로 752,중화1동,37.5970057147127,127.082052346684,식료품점
호남선,서울특별시 광진구 능동로24길 60-5,능동,37.5526859824971,127.080095029994,수산물소매
알라딘식품,서울특별시 광진구 천호대로 596,능동,37.5550927757935,127.083698505234,식료품점
신범진농산,서울특별시 강서구 발산로 40,발산1동,37.5554022583127,126.822851655786,청과물소매
우리농산물직판장청과/수산,서울특별시 강북구 삼양로 470-1,수유2동,37.6452540505062,127.015815032082,청과물소매
라르고팩토리,서울특별시 서초구 남부순환로315길 17,서초3동,37.4793074042089,127.008125125089,식료품점
다다익찬,서울특별시 강남구 개포로25길 8,개포4동,37.4794490339047,127.048351695209,식료품점
왕십리방앗간,서울특별시 성동구 왕십리로21길 30-1,행당1동,37.5601827621882,127.03164941511,식료품점
포레드뱅,서울특별시 서초구 잠원로 24,반포1동,37.5071104906681,127.009861147055,식료품점
교동유밀과,서울특별시 성북구 솔샘로25길 28,정릉4동,37.6184171797225,127.007797892117,식료품점
명품한우,서울특별시 은평구 서오릉로21길 33-1,구산동,37.6135037710373,126.906545995698,육류소매
수곡농산,서울특별시 송파구 양재대로 932,가락1동,37.4945258840774,127.108696384278,청과물소매
가산축산,서울특별시 관악구 남부순환로144길 70,미성동,37.4782469089232,126.913178088566,육류소매
시온농산,서울특별시 송파구 양재대로 932,가락1동,37.4945258840774,127.108696384278,청과물소매
풍년유통,서울특별시 금천구 독산로 69,시흥1동,37.4535726148101,126.905962575495,청과물소매
심양중국식품점,서울특별시 구로구 구로동로42길 59-1,구로2동,37.4982384039881,126.88389164895,식료품점
영식품,서울특별시 영등포구 국회대로54길 43,영등포동,37.5218175951229,126.909819994506,식료품점
두레씽크푸드,서울특별시 중구 퇴계로 286,광희동,37.5630667687941,127.003574687198,식료품점
GS수퍼마켓,서울특별시 강동구 고덕로 133,암사3동,37.5552483870889,127.140331828712,식료품점
중앙해물,서울특별시 강북구 도봉로10라길 10,송중동,37.6154688191362,127.031419964046,수산물소매
우리농산물,서울특별시 강북구 한천로123길 27,번1동,37.6359322280876,127.030429260709,청과물소매
광정당,서울특별시 동대문구 약령서길 28,제기동,37.5795567855535,127.036244196462,청과물소매
서울우유고덕동대리점,서울특별시 강동구 아리수로68길 44,고덕1동,37.5608698656945,127.156419270871,식료품점
야채신선야채,서울특별시 강남구 삼성로 212,대치2동,37.4996105819766,127.065897098053,청과물소매
부자식품,서울특별시 양천구 중앙로 340,신정4동,37.5262786850129,126.850065561544,식료품점
거산청과,서울특별시 관악구 원신길 166,삼성동,37.4658042408529,126.930054723929,청과물소매
은광청과,서울특별시 중구 동호로33길 25,광희동,37.5653499352575,127.000793655004,청과물소매
한국식품안전연구원,서울특별시 서대문구 성산로 533,신촌동,37.5641397022228,126.944553309666,식료품점
엄지손중국식품,서울특별시 금천구 시흥대로128길 16,독산4동,37.4702054220872,126.899106793967,식료품점
홍윤중국식품,서울특별시 구로구 구로중앙로28길 31-48,구로5동,37.5011677417906,126.886856403036,식료품점
중국식품점,서울특별시 성동구 사근동길 60,사근동,37.5608252900826,127.047498703404,식료품점
커라식품,서울특별시 중구 청계천로 260-6,광희동,37.5691528172054,127.006187775828,식료품점
두영식품,서울특별시 영등포구 양산로31길 8,영등포동,37.5234010608574,126.904694791997,식료품점
중국식품,서울특별시 송파구 성내천로32길 24,마천2동,37.4977591165885,127.151305408257,식료품점
강변식품,서울특별시 광진구 구의강변로 45,구의3동,37.5348777610673,127.091289265139,식료품점
에스엠비식품,서울특별시 서초구 남부순환로323길 15,서초3동,37.4817045237696,127.013543315984,식료품점
가온식품,서울특별시 성북구 보국문로16길 44,정릉4동,37.6118474155659,127.009799359881,식료품점
부원식품,서울특별시 관악구 난곡로74길 58,신사동,37.4862918858845,126.916951295996,식료품점
우림식품,서울특별시 강동구 천중로44길 40,길동,37.5394289391064,127.139517708541,식료품점
스카이,서울특별시 중랑구 동일로 829,중화2동,37.6044300677377,127.078552172077,식료품점
대한양계,서울특별시 금천구 남부순환로112길 37,가산동,37.4773288567089,126.89386936176,육류소매
우리농산물협동조합,서울특별시 송파구 양재대로 932,가락1동,37.4945258840774,127.108696384278,청과물소매
성방식품,서울특별시 서초구 바우뫼로7길 29,양재1동,37.4709556551537,127.023395749525,식료품점
대림중국식품,서울특별시 영등포구 디지털로53길 4,대림2동,37.4910659257517,126.901175391105,식료품점
삼호,서울특별시 강북구 한천로144길 41,수유3동,37.6426588473516,127.02664787575,육류소매
서울우유신길동대리점,서울특별시 영등포구 도신로56길 25,신길1동,37.5095479240995,126.915970633551,식료품점
참조은식품,서울특별시 강서구 마곡중앙로 33,발산1동,37.5573259021193,126.826013080822,식료품점
왕십리식품,서울특별시 강북구 삼양로123길 40-31,우이동,37.6459156629715,127.013041377906,식료품점
늘푸른야채,서울특별시 은평구 응암로12길 8,응암3동,37.5879252162871,126.917484443896,청과물소매
서부정육,서울특별시 은평구 응암로4길 29,응암3동,37.5874464857689,126.917355504981,육류소매
초록마을,서울특별시 광진구 아차산로 477,구의3동,37.5407245313983,127.094669623116,유기농식품판매
허클베리팜스문래도소매점,서울특별시 영등포구 경인로71길 50,문래동,37.5146129881572,126.887991499639,식료품점
우성청과,서울특별시 강남구 영동대로 230,대치2동,37.5009553666559,127.068458968898,청과물소매
골목식품,서울특별시 중구 충무로13길 7,을지로동,37.5676712865347,126.991921903007,식료품점
대복청과상회,서울특별시 강서구 곰달래로 183,화곡2동,37.5312487408855,126.85339480838,청과물소매
청호청과,서울특별시 영등포구 영신로 117-1,문래동,37.5182141759813,126.901150708237,청과물소매
승미김치,서울특별시 구로구 고척로22길 38,개봉1동,37.4998575672622,126.847021525647,식료품점
"야채,과일공판장",서울특별시 광진구 긴고랑로9길 5,중곡1동,37.563783101695,127.080762260449,청과물소매
우리양곡,서울특별시 성북구 아리랑로19길 10,정릉2동,37.6026369961714,127.012809351742,청과물소매
한국양봉농협,서울특별시 노원구 공릉로46길 3,공릉2동,37.6271857936747,127.079120983641,청과물소매
우대감식품,서울특별시 은평구 가좌로 175,응암3동,37.586705804528,126.921091363591,식료품점
화룡형제식품,서울특별시 송파구 풍성로 25,풍납1동,37.5348719573737,127.115446654942,식료품점
삼성식품,서울특별시 동대문구 경동시장로8길 32,제기동,37.5808871720013,127.042499331361,식료품점
형제방아간,서울특별시 영등포구 영등포로45길 12-1,영등포동,37.5204430980489,126.908312799523,곡물소매
지민,서울특별시 서대문구 독립문로1길 4,천연동,37.5706641970597,126.959890656287,청과물소매
영화식품,서울특별시 관악구 조원로 90,조원동,37.4844025012399,126.912353960673,식료품점
홍성식품,서울특별시 관악구 국회단지25길 18,은천동,37.4909351126502,126.941117547594,식료품점
주넌식품,서울특별시 강서구 마곡중앙로 33,발산1동,37.5573259021193,126.826013080822,식료품점
자연드림,서울특별시 관악구 은천로 81,은천동,37.4870350575286,126.944304788881,식료품점
백운농산,서울특별시 광진구 영화사로 26,중곡4동,37.5570779063415,127.089887915567,청과물소매
충남상회,서울특별시 강동구 구천면로 209,천호2동,37.5410995983087,127.127741321109,청과물소매
농축한우축산물전문점,서울특별시 구로구 경인로33길 101,고척2동,37.5022940698454,126.850173406787,육류소매
서울정육점,서울특별시 금천구 범안로 1209,독산1동,37.4668179719467,126.896262531894,육류소매
강남전자,서울특별시 강남구 테헤란로 322,역삼2동,37.5032315844681,127.04656828855,식료품점
먹골나들가게,서울특별시 중랑구 공릉로 56,묵1동,37.6155351393279,127.079094777689,식료품점
정한산업,서울특별시 구로구 새말로 102,구로5동,37.5057696736943,126.891391372165,청과물소매
엄마농산,서울특별시 강동구 구천면로34길 29,천호1동,37.5424618703796,127.132862947195,청과물소매
오가네청과,서울특별시 동작구 신대방1가길 47,신대방1동,37.4867388110693,126.907751872664,청과물소매
행복한청과,서울특별시 송파구 백제고분로31길 32-7,삼전동,37.5056127612008,127.096156989008,청과물소매
은희청과,서울특별시 중랑구 용마산로 502,망우본동,37.5957505524108,127.100424144773,청과물소매
소문난농수산물,서울특별시 중랑구 면목로44길 64,면목7동,37.5808197374735,127.092123757494,청과물소매
우리농산물,서울특별시 종로구 계동길 108-6,가회동,37.5820367612039,126.986995657078,청과물소매
은화중국식품,서울특별시 구로구 도림로6길 2,구로3동,37.485590845889,126.887087572057,식료품점
중국식품그린슈퍼,서울특별시 영등포구 영신로10길 4-3,영등포본동,37.5134153584508,126.909331407706,식료품점
원두막,서울특별시 강남구 양재대로55길 10,일원1동,37.4931474348961,127.090980877591,청과물소매
햇살담은청과,서울특별시 도봉구 노해로63가길 6,창5동,37.6529651146347,127.045201063365,청과물소매
영준이네청과,서울특별시 금천구 탑골로 15,시흥5동,37.4517511123488,126.910690818752,청과물소매
한도청과,서울특별시 동대문구 약령시로13길 49,제기동,37.5852645701133,127.038967263902,청과물소매
우리청과,서울특별시 동대문구 외대역동로 37,휘경1동,37.5921588330033,127.066066413637,청과물소매
퓨리스샘물대진유통,서울특별시 노원구 중계로2길 75,중계본동,37.6430059334805,127.083480894184,식료품점
구일종합식품,서울특별시 강동구 천중로51길 52,길동,37.5431352212778,127.14488424843,식료품점
횡성한우,서울특별시 동작구 여의대방로44길 10,대방동,37.5073516159231,126.926080127034,육류소매
하나유통,서울특별시 노원구 동일로 1015,공릉1동,37.6207237132059,127.074307052102,식료품점
비타과일,서울특별시 구로구 디지털로27길 86,구로3동,37.484477601348,126.889433349468,청과물소매
한살림생협방배매장,서울특별시 서초구 서초대로 124,방배1동,37.4881078960032,126.99605647413,유기농식품판매
목우촌웰빙마을,서울특별시 용산구 새창로 70,용문동,37.5385973487808,126.9549275206,육류소매
성현청과,서울특별시 영등포구 영신로37길 9,당산1동,37.5211312134969,126.89993141276,청과물소매
행복한우,서울특별시 구로구 경인로59길 8,신도림동,37.5063792736014,126.883408521215,육류소매
바른고기,서울특별시 서초구 동광로12가길 16,방배4동,37.4874279607816,126.983977701335,육류소매
대동식품,서울특별시 성북구 동소문로42나길 26-6,길음2동,37.6051416562504,127.029073606993,식료품점
신세계하이퍼,서울특별시 중랑구 상봉로11길 17,면목본동,37.590104176324,127.092599799432,식료품점
화신축산유통,서울특별시 성동구 고산자로 344,마장동,37.5701186572777,127.0379393303,육류소매
선샤인청과,서울특별시 동작구 사당로16길 58,사당4동,37.4811969672499,126.971975223714,청과물소매
우리청과,서울특별시 강남구 언주로70길 20,역삼2동,37.4972274476723,127.047300561726,청과물소매
보광식품,서울특별시 성북구 보국문로37길 22,정릉4동,37.6168551609595,126.998881461514,식료품점
당진상회,서울특별시 영등포구 문래로30길 27,문래동,37.5161286302644,126.900706190944,청과물소매
한살림생협미아매장,서울특별시 강북구 솔샘로 184,삼양동,37.6199460920099,127.012829731712,유기농식품판매
횡성축산,서울특별시 금천구 금하로 793,시흥2동,37.4503145111976,126.920080996119,육류소매
오피스알파,서울특별시 송파구 올림픽로 99,잠실2동,37.5150607432784,127.078136321231,수산물소매
까치청과,서울특별시 도봉구 덕릉로 350,창1동,37.6435654433105,127.048312860708,청과물소매
미다한청과,서울특별시 송파구 송파대로 260,가락본동,37.4931332886635,127.118845448906,청과물소매
남양유업,서울특별시 관악구 관악로12길 109,낙성대동,37.4773380369493,126.958325094805,식료품점
동서울농업협동조합면목지점,서울특별시 중랑구 겸재로 229,면목본동,37.5897455322383,127.092830617581,청과물소매
흑석닭집,서울특별시 동작구 서달로12길 29,흑석동,37.5065732035481,126.962997409176,육류소매
미래정육점,서울특별시 은평구 갈현로29길 11,갈현2동,37.6192215975113,126.913949739504,육류소매
증산유통,서울특별시 은평구 증산서길 93-1,증산동,37.5846060649292,126.907342477667,육류소매
농협가공식품,서울특별시 중랑구 용마산로94길 91,면목3.8동,37.5878762622893,127.101719150735,청과물소매
농수산직매장,서울특별시 금천구 시흥대로149길 63,독산1동,37.4746961309182,126.894654337298,청과물소매
하콘리농산,서울특별시 송파구 중대로9길 42-10,가락본동,37.4964315604018,127.118897169973,청과물소매
우리농산,서울특별시 송파구 가락로11길 12,석촌동,37.5014063799685,127.104644843306,곡물소매
경동상회,서울특별시 구로구 고척로40길 19,고척2동,37.5018615380402,126.851096124723,식료품점
도운청과,서울특별시 영등포구 영등포로 167-1,당산1동,37.5208993974507,126.900195006405,청과물소매
완도생선,서울특별시 강북구 도봉로71길 26,수유1동,37.6315222108878,127.022306674247,수산물소매
심협상회,서울특별시 중구 퇴계로41길 45,광희동,37.5638446916272,126.99542582305,청과물소매
보영정육점,서울특별시 용산구 청파로71길 13,청파동,37.5491900448332,126.968869235957,육류소매
해맑음보호작업시설,서울특별시 노원구 동일로 1097,공릉1동,37.6277906124184,127.071217239602,식료품점
송화과일,서울특별시 강서구 강서로 263-29,발산1동,37.5492020692097,126.834548912177,청과물소매
무지개상회,서울특별시 구로구 구로동로26길 36,구로4동,37.4900496060036,126.885981089468,청과물소매
우리과일,서울특별시 양천구 목동중앙북로 6,목3동,37.5484996536307,126.864175734175,청과물소매
대한노인회신문화사업단주식회,서울특별시 강남구 밤고개로1길 10,수서동,37.4880133628924,127.101842066177,식료품점
세이브씨앤라이프,서울특별시 강동구 올림픽로 664,천호2동,37.5407346212382,127.124690304827,청과물소매
돼지수산,서울특별시 양천구 중앙로33길 19-1,신정3동,37.5177797702993,126.850772917654,수산물소매
수산마켓어싸또,서울특별시 구로구 구로동로26길 80,구로4동,37.489983262979,126.88850374357,수산물소매
시장야채,서울특별시 은평구 연서로17길 18-6,갈현2동,37.6132684597914,126.916199708594,청과물소매
천해수산,서울특별시 양천구 목동중앙북로 14,목3동,37.5483727873689,126.865037730621,수산물소매
대건청과,서울특별시 강북구 도봉로71길 26,수유1동,37.6315222108878,127.022306674247,청과물소매
삼봉굴비,서울특별시 중구 을지로32길 35-10,광희동,37.5649083781653,127.000788233609,수산물소매
운대청과,서울특별시 동대문구 왕산로35길 6,청량리동,37.5800393456361,127.043506497653,청과물소매
을지상회,서울특별시 중구 을지로32길 12,을지로동,37.5660745231512,127.000172721343,수산물소매
초록과일,서울특별시 강동구 상암로11길 12,암사1동,37.5501635248108,127.128869283197,청과물소매
한살림생협여의매장,서울특별시 영등포구 여의동로 97,여의동,37.5174605821564,126.926987294628,유기농식품판매
해돋이청과유통,서울특별시 양천구 등촌로 214,목3동,37.5485940715479,126.86368768071,청과물소매
전라상회,서울특별시 영등포구 문래로30길 27,문래동,37.5161286302644,126.900706190944,곡물소매
순천집,서울특별시 은평구 연서로54길 11,진관동,37.645431677978,126.940616515705,식료품점
오송상회,서울특별시 광진구 동일로10길 30,자양4동,37.5379934296566,127.063359108716,청과물소매
신우야채,서울특별시 광진구 자양로13길 59,자양1동,37.5337934059876,127.081571757135,청과물소매
구씨네,서울특별시 송파구 석촌호수로12길 13,잠실본동,37.5089143046997,127.084930629439,청과물소매
기섭이네,서울특별시 송파구 바람드리길 44,풍납1동,37.5372531966884,127.120600923699,청과물소매
호남상회,서울특별시 강북구 한천로170가길 22,수유2동,37.6485041183373,127.016576720867,청과물소매
딩동댕야채,서울특별시 송파구 백제고분로48길 34,방이2동,37.5104887534991,127.116571510597,청과물소매
제주수산아주머니집,서울특별시 강동구 풍성로58길 34,성내3동,37.5274759811129,127.135140817193,수산물소매
한일6호,서울특별시 금천구 범안로 1216,독산1동,37.4661045130704,126.897053020902,육류소매
어사랑,서울특별시 광진구 긴고랑로11길 11,중곡1동,37.5639042794644,127.081281458183,수산물소매
뚝섬야채상회,서울특별시 성동구 성덕정15길 2-1,성수2가1동,37.5377999055517,127.053777462417,청과물소매
동남정육점,서울특별시 양천구 오목로30길 37,신정4동,37.5216472906289,126.854695658192,육류소매
정원쇼핑,서울특별시 서대문구 홍은중앙로 99,홍은1동,37.5995666755305,126.948390347742,식료품점
동양정육점,서울특별시 종로구 삼일대로 428,종로1.2.3.4가동,37.5722118240185,126.987626852674,육류소매
덕경농산,서울특별시 송파구 양재대로 932,가락1동,37.4945258840774,127.108696384278,청과물소매
대원,서울특별시 성동구 마조로 17,사근동,37.5595518167192,127.040452117273,식료품점
이염축산,서울특별시 광진구 능동로 398,중곡3동,37.5653138819736,127.086437154639,육류소매
행복식품,서울특별시 은평구 통일로 684,녹번동,37.6093933924435,126.934932568752,식료품점
정성폐백,서울특별시 강북구 월계로7길 12,송중동,37.6107858697097,127.032817209255,식료품점
한우리축산,서울특별시 강동구 상암로41길 50,천호1동,37.5483621539994,127.141271010663,육류소매
먹거리수산물,서울특별시 동작구 상도로15길 111-4,상도2동,37.5047110929214,126.936987052652,수산물소매
욱천상사,서울특별시 용산구 이촌로 38,이촌2동,37.5282937724725,126.954403778612,식료품점
자연드림송파잠실점,서울특별시 송파구 삼전로 95,잠실본동,37.5070244934749,127.089907778207,유기농식품판매
기봉농산,서울특별시 송파구 양재대로 932,가락1동,37.4945258840774,127.108696384278,청과물소매
웍스프레소,서울특별시 강남구 테헤란로83길 21,삼성1동,37.5088223488014,127.057197319674,식료품점
두근두근정육스토어,서울특별시 은평구 갈현로1길 10,신사1동,37.5994170317357,126.909073719141,육류소매
김광열,서울특별시 동대문구 외대역동로27길 81,이문2동,37.6008618160553,127.06706746768,청과물소매
동신미곡상회,서울특별시 종로구 자하문로1길 25,사직동,37.5763743121099,126.970917197758,곡물소매
총각생선,서울특별시 은평구 응암로4길 22,응암3동,37.58678313167,126.917727436264,수산물소매
서울청과,서울특별시 중랑구 상봉로 49,면목본동,37.5902541595776,127.093356638029,청과물소매
하양상회,서울특별시 영등포구 영신로 124,영등포동,37.5187752716196,126.901413974858,곡물소매
착한고기,서울특별시 송파구 바람드리길 16,풍납1동,37.5378521661012,127.117550055953,육류소매
일심상회,서울특별시 강북구 삼각산로 152,수유3동,37.6414141048013,127.021043950169,청과물소매
청금상회,서울특별시 동대문구 약령중앙로8길 10,제기동,37.5815152106853,127.037736086518,청과물소매
싱싱과일나라,서울특별시 도봉구 도당로13가길 13,방학2동,37.6658656183622,127.036058737974,청과물소매
국산상회,서울특별시 강북구 도봉로71길 26,수유1동,37.6315222108878,127.022306674247,청과물소매
의정부상회,서울특별시 강북구 도봉로67길 18,수유1동,37.6307230985732,127.022645694589,청과물소매
유일참기름,서울특별시 송파구 마천로45길 13,마천2동,37.4971897696314,127.149819030386,식료품점
이모네중국식품,서울특별시 구로구 디지털로19길 49,가리봉동,37.4818825217972,126.889426534851,식료품점
대랑상회,서울특별시 동대문구 경동시장로 3-1,제기동,37.5793329452055,127.040843641755,청과물소매
하누소식육센터,서울특별시 노원구 상계로37길 10,상계3.4동,37.6707156045685,127.079218133336,육류소매
대화상회,서울특별시 광진구 긴고랑로 41,중곡1동,37.5630002333348,127.080896390237,청과물소매
과일향기,서울특별시 구로구 고척로27다길 47-10,고척2동,37.5059815917924,126.848556026539,청과물소매
강화상회,서울특별시 강동구 구천면로 209,천호2동,37.5410995983087,127.127741321109,청과물소매
용원과일,서울특별시 중랑구 망우로62길 48,망우본동,37.5970134150863,127.098245998894,청과물소매
동두천상회,서울특별시 강북구 도봉로67길 18,수유1동,37.6307230985732,127.022645694589,청과물소매
한살림생협,서울특별시 강남구 광평로10길 15,일원본동,37.4828890704121,127.083427691269,유기농식품판매
왕도매회어시장,서울특별시 광진구 능동로47길 21,중곡1동,37.5632471049613,127.081357443576,수산물소매
광성상회,서울특별시 동대문구 약령중앙로8길 10,제기동,37.5815152106853,127.037736086518,청과물소매
한민식품한민코스메틱,서울특별시 종로구 지봉로 29,창신1동,37.5725177119221,127.015267401733,식료품점
경기상회,서울특별시 성동구 성덕정15길 6-42,성수2가1동,37.5381912156255,127.054259078334,청과물소매
홍천우리소한우전문판매,서울특별시 서대문구 영천시장길 46,천연동,37.5702099635076,126.961515751132,육류소매
노마진청과,서울특별시 강서구 강서로16길 14,화곡8동,37.5327096944312,126.847047722784,청과물소매
준호네생선,서울특별시 양천구 중앙로34길 30,신정1동,37.5207633169285,126.853668416862,수산물소매
보현농산,서울특별시 송파구 양재대로 932,가락1동,37.4945258840774,127.108696384278,청과물소매
일진방앗간,서울특별시 양천구 목동로3길 57,신정7동,37.5094471185197,126.862143660186,식료품점
싱싱야채,서울특별시 도봉구 도봉로113길 20,쌍문3동,37.648360182841,127.032953412897,청과물소매
우리농산물,서울특별시 광진구 긴고랑로9길 7,중곡1동,37.5639005793429,127.080806094047,청과물소매
장미네야채,서울특별시 광진구 자양로13길 59,자양1동,37.5337934059876,127.081571757135,청과물소매
진천식품,서울특별시 은평구 가좌로 344,신사1동,37.5979062292789,126.907442435,식료품점
농산물할인,서울특별시 도봉구 방학로10길 63,방학2동,37.6648079268854,127.034530918124,청과물소매
노룬산청과,서울특별시 광진구 뚝섬로 493,자양4동,37.5362689160075,127.065191091947,청과물소매
공릉과일,서울특별시 노원구 동일로180길 37,공릉1동,37.6226850384196,127.076231178909,청과물소매
학순네상회,서울특별시 성동구 성수이로 37,성수2가1동,37.5385808933813,127.054537042233,청과물소매
한살림생협,서울특별시 성북구 아리랑로 31-1,동선동,37.5956135899181,127.015529319681,유기농식품판매
영광굴비,서울특별시 영등포구 문래북로 144,문래동,37.5188856555285,126.900688368803,수산물소매
고덕곳간쌀직판장,서울특별시 동작구 사당로2차길 65,사당5동,37.4860775799057,126.967487145062,곡물소매
아현상회,서울특별시 마포구 굴레방로7길 5,아현동,37.556260208252,126.955201519128,곡물소매
완도수산,서울특별시 광진구 동일로10길 30,자양4동,37.5379934296566,127.063359108716,수산물소매
대명쌀집,서울특별시 관악구 대학길 74,대학동,37.4674303800148,126.937515178654,곡물소매
서울우유노량진2동고객센터,서울특별시 동작구 등용로 50,대방동,37.5060026357346,126.933326791535,식료품점
자연드림,서울특별시 금천구 금하로28길 4,시흥5동,37.4498545613674,126.912176268154,식료품점
환일종합청과,서울특별시 구로구 디지털로19길 49,가리봉동,37.4818825217972,126.889426534851,청과물소매
세리상회,서울특별시 영등포구 문래로30길 27,문래동,37.5161286302644,126.900706190944,곡물소매
사거리야채,서울특별시 양천구 월정로27길 5,신월1동,37.532378830398,126.83628161644,청과물소매
중국식품,서울특별시 영등포구 대림로22다길 16,대림1동,37.4969710360666,126.904436333814,식료품점
금빛참기름,서울특별시 강북구 도봉로71길 26,수유1동,37.6315222108878,127.022306674247,식료품점
싱싱상회,서울특별시 강북구 삼양로122길 5,수유2동,37.6448421729225,127.016126416969,수산물소매
